disno_,city,country,latitude,longitude
2022-0509-TCD,Batha,Chad,13.9371775,18.4276047
2024-0569-TCD,Batha,Chad,13.9371775,18.4276047
2009-9654-TCD,Kanem,Chad,14.8781262,15.4068079
2012-9160-TCD,Kanem,Chad,14.8781262,15.4068079
2010-0300-TCD,Borkou,Chad,18.1063889,18.5283333
2012-0347-TCD,Rig-rig,Chad,14.2637943,14.3538255
2020-0382-TCD,Ndjamena,Chad,12.1191352,15.0502875
2019-0415-TCD,Sila Region,Chad,12.13074,21.2845025
2022-9335-TCD,Bahr El Gazal,Chad,14.8333333,17.0
2017-9342-TCD,Chari Baguimi,Chad,11.2564207,16.1580937
2008-0445-TCD,Kerfi village,Chad,11.9,21.3
2001-0521-TCD,Tandjile Ouest,Chad,9.2816032,15.6881788
2019-0453-TCD,Tibesti Region,Chad,20.9566791,17.2902839
2009-0498-TCD,Bongor district,Chad,10.2748807,15.3775245
2007-0375-TCD,Bebedjia district,Chad,8.6706469,16.5760857
2006-0711-TCD,Ndjamena district,Chad,12.1191352,15.0502875
2008-0367-TCD,Ndjamena district,Chad,12.1191352,15.0502875
2024-0260-TCD,Mandoul and Logone,Chad,9.1883677780665476,15.877512941764531
2020-0302-TCD,Grande Sido departement,Chad,8.469114,18.5225709
2021-0382-TCD,Bologo and Dafra districts; Tandjilé,Chad,9.5,16.5
2008-0532-CUB,Bayamo,Cuba,20.3719163,-76.6297189
2015-0168-CUB,Havana,Cuba,23.1135925,-82.3665956
2022-0367-CUB,Havana,Cuba,23.1135925,-82.3665956
2016-0355-CUB,Baracoa,Cuba,20.3474809,-74.5023819
2020-0312-CUB,Baracoa,Cuba,20.3474809,-74.5023819
2004-9332-CUB,Holguin,Cuba,20.8795129,-76.2594981
2006-0319-CUB,Camaguey,Cuba,21.3926035,-77.9053182
2015-9372-CUB,Camaguey,Cuba,21.3926035,-77.9053182
2001-0612-CUB,Matanzas,Cuba,23.0303395,-81.5322149
2021-0373-CUB,Matanzas,Cuba,23.0303395,-81.5322149
2022-0366-CUB,Matanzas,Cuba,23.0303395,-81.5322149
2012-0313-CUB,Gantanamo,Cuba,20.1400094,-75.2128996
2004-0415-CUB,La Habana,Cuba,23.1135925,-82.3665956
2013-0511-CUB,La Habana,Cuba,23.1135925,-82.3665956
2005-0351-CUB,Cienfuegos,Cuba,22.1599753,-80.4437781
2008-0338-CUB,Cienfuegos,Cuba,22.1599753,-80.4437781
2000-9496-CUB,Guantanamo,Cuba,20.1400094,-75.2128996
2008-0384-CUB,Guantanamo,Cuba,20.1400094,-75.2128996
2021-0551-CUB,Isle of Youth,Cuba,21.7084737,-82.82202319999999
2004-0462-CUB,Pinar del Rio,Cuba,22.4133651,-83.6880257
2007-0360-CUB,Pinar del Rio,Cuba,22.4133651,-83.6880257
2022-0614-CUB,Pinar del Rio,Cuba,22.4133651,-83.6880257
2023-0565-CUB,Pinar del Rio,Cuba,22.4133651,-83.6880257
2002-0359-CUB,Ciego De Avila,Cuba,21.8405365,-78.7589558
2018-0170-CUB,Ciego de Avila,Cuba,21.8405365,-78.7589558
2017-0381-CUB,Habana del Este,Cuba,23.1041815,-82.1604849
2020-0207-CUB,Sancti Spiritus,Cuba,21.9327554,-79.4366324
2005-0585-CUB,Santiago de Cuba,Cuba,20.01693,-75.8301537
2012-0410-CUB,Santiago de Cuba,Cuba,20.01693,-75.8301537
2006-0272-CUB,Nueva Paz district,Cuba,22.7627414,-81.7554578
2008-0514-CUB,Santa Cruz del Sur,Cuba,20.7156807,-77.9938497
2003-0766-CUB,Guantanamo province,Cuba,20.1455917,-74.8741045
2002-0604-CUB,Isla De La Juventud,Cuba,21.7084737,-82.82202319999999
2000-0869-CUB,Centro Habana district,Cuba,23.0967566,-82.350705
2012-0251-CUB,Santi Spiritus province,Cuba,21.9938214,-79.4703885
2018-0101-FJI,Nadi,Fiji,-17.7806257,177.4298961
2006-0073-FJI,Lautoka,Fiji,-17.6169957,177.4504888
2016-0041-FJI,Savusavu,Fiji,-16.7799114,179.3381105
2018-0194-FJI,Sigatoka,Fiji,-18.1416372,177.5074315
2020-0554-FJI,Lau group,Fiji,-18.8934174356632,-179.25063789997131
2021-0070-FJI,Viti levu,Fiji,-17.8483187,178.0118473
2022-0013-FJI,Tavua Town,Fiji,-17.4414891,177.8623411
2007-0151-FJI,Lau district,Fiji,-18.8934174356632,-179.25063789997131
2007-0655-FJI,Cikobia island,Fiji,-15.7321726,-179.9323304
2006-0071-FJI,Macuata district,Fiji,-16.5903998,178.911015
2020-0015-FJI,Viti Levu Island,Fiji,-17.8483187,178.0118473
2012-0024-FJI,Western province,Fiji,-17.713371,178.065032
2012-0069-FJI,Western province,Fiji,-17.713371,178.065032
2002-0432-GUM,Guam province,Guam,13.444304,144.793731
2002-0753-GUM,Guam province,Guam,13.444304,144.793731
2004-0445-GUM,Guam province,Guam,13.444304,144.793731
2019-0141-IRQ,Anbar,Iraq,32.5597614,41.9196471
2006-0065-IRQ,Erbil,Iraq,36.1877383,44.0106983
2021-0818-IRQ,Erbil,Iraq,36.1877383,44.0106983
2015-0485-IRQ,Baghdad,Iraq,33.315241,44.3660671
2009-0489-IRQ,Mergasur,Iraq,36.840617,44.3018011
2022-0259-IRQ,Najaf City,Iraq,32.0316216,44.3218899
2020-0116-IRQ,Baqubah City,Iraq,33.7517053,44.6080708
2006-0599-IRQ,Khalifan city,Iraq,36.5985929,44.4037724
2011-0184-IRQ,Mosul district,Iraq,36.3489278,43.157736
2008-0523-IRQ,Choman district,Iraq,36.7065565,44.8457517
2012-0491-IRQ,Baghdad province,Iraq,33.3152618,44.3660653
2021-0705-IRQ,Erbil Governorate,Iraq,36.5570628,44.3851263
2013-0504-IRQ,Nassriya district,Iraq,30.9330569,46.1326778
2017-0446-IRQ,Sulaymaniyah governorate areas,Iraq,35.5466348,45.3003683
2018-0427-IRQ,Ach-Charqat/Al Shirkat district; Salaheddine and Ninewa provinces,Iraq,36.229574,42.2362435
2009-0523-MLI,Kayes,Mali,14.4393538,-11.4467369
2010-0536-MLI,Kayes,Mali,14.4393538,-11.4467369
2010-9249-MLI,Kayes,Mali,14.4393538,-11.4467369
2011-9661-MLI,Kayes,Mali,14.4393538,-11.4467369
2019-0420-MLI,Kidal,Mali,18.4467469,1.408939
2005-9142-MLI,Mopti,Mali,14.490149,-4.1924713
2007-0275-MLI,Segou,Mali,13.4309703,-6.2612780000000008
2001-9044-MLI,Bamako,Mali,12.6461525,-8.001654799999999
2019-0200-MLI,Bamako,Mali,12.6461525,-8.001654799999999
2005-0297-MLI,Ansongo,Mali,15.6729353,0.5045206
2002-0468-MLI,Goundam,Mali,16.4169544,-3.6630781999999988
2001-0524-MLI,Sikasso,Mali,11.3154237,-5.6675081
2006-0445-MLI,Sikasso,Mali,11.3154237,-5.6675081
2018-0441-MLI,Kayes city,Mali,14.4393538,-11.4467369
2003-0389-MLI,Tombouctou,Mali,16.7665887,-3.0025615
2013-0366-MLI,Diabaly area,Mali,14.6859026,-6.0211733999999986
2022-0654-MLI,Mopti region,Mali,14.6338039,-3.4195527
2005-0552-MLI,Kayes district,Mali,14.4393538,-11.4467369
2006-9425-MLI,Kidal province,Mali,18.4467469,1.408939
2013-0310-MLI,Bamako district,Mali,12.617098,-7.9810845000000006
2000-0530-MLI,Abeibara district,Mali,19.11,1.75
2010-0456-MLI,Tombouctou district,Mali,16.7665887,-3.0025615
2004-0004-NIU,Alofi area,Niue,-19.0558365,-169.9213651
2018-0394-OMN,Dhofar,Oman,17.0322121,54.1425214
2010-0210-OMN,A Dakhliya,Oman,22.8588758,57.5394356
2011-0414-OMN,A Dakhliya,Oman,22.8588758,57.5394356
2024-0219-OMN,South Batinah,Oman,23.4314903,57.4239796
2021-0645-OMN,Al Suwayq Town,Oman,23.8262343,57.428789900000012
2003-0176-OMN,Nizwa district,Oman,22.9171031,57.536292
2002-0285-OMN,Dhofar province,Oman,17.0322121,54.1425214
2007-0164-OMN,Muscat province,Oman,23.5880462,58.3828798
2015-0035-OMN,Muscat province,Oman,23.5880462,58.3828798
2024-0076-OMN,Rustaq Town area,Oman,23.4425277,57.434445099999991
2021-0423-OMN,Sur in Ash Sharqiyah,Oman,22.7141196,58.5308064
2020-0221-OMN,Governorate of Dhofar,Oman,17.0322121,54.1425214
2002-0429-PER,Puno,Peru,-15.8402218,-70.0218805
2013-0357-PER,Puno,Peru,-15.8402218,-70.0218805
2016-0054-PER,Puno,Peru,-15.8402218,-70.0218805
2014-0534-PER,Cusco,Peru,-13.53195,-71.96746259999999
2007-0039-PER,Junin,Peru,-11.1581925,-75.9926306
2023-0221-PER,Piura,Peru,-5.1782884,-80.6548882
2018-0011-PER,Yauca,Peru,-15.6618475,-74.527788600000008
2004-0331-PER,Ancash,Peru,-9.3250497,-77.5619419
2010-0156-PER,Ancash,Peru,-9.3250497,-77.5619419
2010-0343-PER,Ancash,Peru,-9.3250497,-77.5619419
2003-0051-PER,Melgar,Peru,-14.6694801,-70.7168469
2002-0077-PER,Tumbes,Peru,-3.5564921,-80.4270885
2002-0187-PER,Tumbes,Peru,-3.5564921,-80.4270885
2006-0147-PER,Tumbes,Peru,-3.5564921,-80.4270885
2006-9016-PER,Tumbes,Peru,-3.5564921,-80.4270885
2008-0064-PER,Tumbes,Peru,-3.5564921,-80.4270885
2023-0155-PER,Tumbes,Peru,-3.5564921,-80.4270885
2006-0213-PER,Ubinas,Peru,-16.355,-70.903055999999992
2016-0298-PER,Yanque,Peru,-15.6501,-71.658435799999992
2019-0647-PER,Huanuco,Peru,-9.9207647999999988,-76.2410843
2009-0143-PER,Retamas,Peru,-8.0189468,-77.477367399999991
2022-0163-PER,Retamas,Peru,-8.0189468,-77.477367399999991
2002-9843-PER,Amazonas,Peru,-5.115146,-78.11082789999999
2009-0301-PER,Amazonas,Peru,-5.115146,-78.11082789999999
2011-0583-PER,Amazonas,Peru,-5.115146,-78.11082789999999
2012-0402-PER,Amazonas,Peru,-5.115146,-78.11082789999999
2014-0547-PER,Amazonas,Peru,-5.115146,-78.11082789999999
2011-0064-PER,Apurimac,Peru,-14.0504533,-73.087749
2015-0315-PER,Apurimac,Peru,-14.0504533,-73.087749
2019-0072-PER,Apurimac,Peru,-14.0504533,-73.087749
2001-0294-PER,Arequipa,Peru,-16.4057001,-71.5400994
2013-0409-PER,Arequipa,Peru,-16.4057001,-71.5400994
2017-0036-PER,Arequipa,Peru,-16.4057001,-71.5400994
2019-0093-PER,Arequipa,Peru,-16.4057001,-71.5400994
2020-0094-PER,Arequipa,Peru,-16.4057001,-71.5400994
2009-0569-PER,Ayachuco,Peru,-13.1638737,-74.22356409999999
2003-0339-PER,Ayacucho,Peru,-13.1638737,-74.22356409999999
2019-0358-PER,Moquegua,Peru,-17.1882694,-70.931795000000008
2020-0032-PER,Uchumayo,Peru,-16.4216675,-71.634702699999991
2007-0263-PER,Apurímac,Peru,-14.0504533,-73.087749
2023-0137-PER,Cajamarca,Peru,-7.1617465,-78.512785499999993
2001-0117-PER,El Collao,Peru,-16.7303182,-69.7644353
2005-0558-PER,Moyobamba,Peru,-6.0419882,-76.970066899999992
2021-0098-PER,Tambopata,Peru,-12.2199395,-69.8597406
2017-0052-PER,Lambayeque,Peru,-6.7044468,-79.9042472
2012-0386-PER,El Porvenir,Peru,-8.069898300000002,-79.0106012
2021-0145-PER,Tambogrande,Peru,-4.9263073,-80.341112600000017
2021-0758-PER,Condorcanqui,Peru,-4.1428413,-78.11082789999999
2011-0201-PER,Huancavelica,Peru,-12.7861978,-74.9764024
2004-0156-PER,Machu Picchu,Peru,-13.1631988,-72.5452621
2001-0271-PER,Mazamri area,Peru,-11.3322542,-74.528751
2021-0462-PER,Piura region,Peru,-5.3197093,-80.4549026
2009-0660-PER,Lima district,Peru,-12.046374,-77.0427934
2014-0040-PER,Madre de Dios,Peru,-11.7668705,-70.811995299999992
2015-0522-PER,Pedegral area,Peru,-9.189967,-75.015152
2021-0712-PER,Jaèn Province,Peru,-5.706802,-78.9288242
2021-0212-PER,Nauta District,Peru,-4.4685864,-74.123995999999991
2023-0814-PER,Chilca District,Peru,-12.5146159,-76.7349974
2002-0708-PER,Satipo district,Peru,-11.1626659,-74.546328199999991
2023-0066-PER,Camaná Province,Peru,-16.3033314,-72.99329689999999
2011-0443-PER,Ica municipality,Peru,-14.07546,-75.7341811
2020-0122-PER,Maranon Province,Peru,-8.6771850000000015,-77.0393795
2024-0162-PER,Molinos District,Peru,-11.7382104,-75.44466899999999
2011-0556-PER,Ucayali province,Peru,-7.1986064,-75.34121789999999
2024-0052-PER,Velille District,Peru,-14.536469,-71.8096941
2017-0084-PER,Ancash department,Peru,-9.3250497,-77.5619419
2005-0321-PER,Arequipa district,Peru,-16.4056953,-71.5401067
2013-0355-PER,Arequipa district,Peru,-16.4056953,-71.5401067
2012-0256-PER,Arequipa province,Peru,-16.2547382,-71.3824374
2022-0079-PER,Barranca District,Peru,-10.7230259,-77.6879696
2004-9063-PER,Cajamarca province,Peru,-7.2026902,-78.3842227
2019-0027-PER,Apurimac department,Peru,-13.6547027,-72.8751786
2022-0430-PER,La Capilla district,Peru,-16.7569116,-71.179570599999991
2021-0235-PER,Pichari and Kimbiri,Peru,-12.6187328,-73.7874983
2022-0026-PER,Ventanilla district,Peru,-11.8775146,-77.1286973
2021-0170-PER,Yurimaguas District,Peru,-5.8112107,-76.178373900000011
2020-0070-PER,Santa Teresa District,Peru,-13.129911,-72.5941899
2013-0578-PER,Leoncio Prado district,Peru,-11.0329234,-76.8951551
2024-0473-PER,Near Arequipa province,Peru,-16.2547382,-71.3824374
2022-0058-PER,Machu Picchu Pueblo District,Peru,-13.1547062,-72.5254412
2021-0101-PER,Santa Rosa de Alto Yanajanca district,Peru,-8.8109346999999989,-76.5025742
2021-0094-PER,Santa Ana District and Echarate District,Peru,-12.7756182,-72.594683100000012
2024-0103-PER,Contralmirante Villar and Tumbes Provinces,Peru,-3.9358312999999989,-80.7214417
2010-0550-TGO,Baguida,Togo,6.1642855999999986,1.3262744
2020-0426-TGO,Mandouri,Togo,10.8525347,0.8174972
2017-0481-TGO,Nangbeto,Togo,7.423722,1.43495
2006-0351-TGO,Agoè Zongo,Togo,6.2734975,1.2111164
2022-0742-TGO,Maritime region,Togo,6.4913504,1.2891036
2007-0477-BEN,Atakora,Benin,10.7954931,1.6760691
2009-0468-BEN,Athieme,Benin,6.5915434999999993,1.6809283
2022-0696-BEN,Athieme,Benin,6.5915434999999993,1.6809283
2011-0283-BEN,Lokossa,Benin,6.6448092999999986,1.7198215
2009-0243-BEN,Akogbato,Benin,6.3702928,2.3912362
2013-0375-BEN,Karimama,Benin,12.0694249,3.1842421
2021-0701-BEN,Karimama,Benin,12.0694249,3.1842421
2012-0320-BEN,Birni Lafia,Benin,11.9777456,3.2219164
2010-0527-BEN,Tchaourou district,Benin,8.8879709,2.5941239
2015-0204-CHL,Aisen,Chile,-46.378345,-72.3007623
2011-0584-CHL,Maule,Chile,-35.5185649,-71.688976
2005-0393-CHL,Biobio,Chile,-37.4464428,-72.1416132
2012-0605-CHL,Biobio,Chile,-37.4464428,-72.1416132
2013-0407-CHL,Biobio,Chile,-37.4464428,-72.1416132
2004-0307-CHL,Chiloe,Chile,-42.6239686,-73.926573199999993
2024-0362-CHL,Ñuble,Chile,-36.7225743,-71.7622481
2002-0546-CHL,Bio Bio,Chile,-37.4464428,-72.1416132
2006-0363-CHL,Bio Bio,Chile,-37.4464428,-72.1416132
2008-0229-CHL,Bio Bio,Chile,-37.4464428,-72.1416132
2008-0182-CHL,Chaiten,Chile,-42.918234,-72.7095437
2011-0209-CHL,Futrono,Chile,-40.1291435,-72.38787769999999
2005-0321-CHL,Iquique,Chile,-20.2307033,-70.1356692
2021-0392-CHL,Bio Bío,Chile,-37.4464428,-72.1416132
2014-0525-CHL,Coquimbo,Chile,-29.9591432,-71.339092499999992
2017-0185-CHL,Coquimbo,Chile,-29.9591432,-71.339092499999992
2019-0023-CHL,Coquimbo,Chile,-29.9591432,-71.339092499999992
2024-0398-CHL,Coquimbo,Chile,-29.9591432,-71.339092499999992
2017-0055-CHL,Santiago,Chile,-33.4488897,-70.6692655
2008-0389-CHL,Araucania,Chile,-38.948921,-72.331113
2015-0435-CHL,Araucania,Chile,-38.948921,-72.331113
2023-0050-CHL,Bío Bío,Chile,-37.4464428,-72.1416132
2011-0661-CHL,Lonquimay,Chile,-38.456911,-71.3690462
2007-0587-CHL,Tocopilla,Chile,-22.0886778,-70.1960541
2015-0143-CHL,Vallarica,Chile,-39.2827107,-72.2281654
2015-0338-CHL,Valparaiso,Chile,-33.0473128,-71.6127458
2017-0002-CHL,Valparaiso,Chile,-33.0473128,-71.6127458
2023-0829-CHL,Valparaiso,Chile,-33.0473128,-71.6127458
2000-0423-CHL,Antofagasta,Chile,-23.6509279,-70.397502199999991
2005-0256-CHL,Antuco city,Chile,-37.328954,-71.6743032
2012-0126-CHL,Parral town,Chile,-36.1406484,-71.8227528
2023-0539-CHL,Valparaíso,Chile,-33.0473128,-71.6127458
2007-0158-CHL,Puerto Aisen,Chile,-45.4035437,-72.6864155
2015-0142-CHL,Ensenada town,Chile,-41.2138201,-72.5456519
2001-0053-CHL,General Lagos,Chile,-17.6539448,-69.6346514
2022-0828-CHL,Viña del Mar,Chile,-33.0153481,-71.550027599999993
2011-0097-CHL,Maule province,Chile,-35.5185649,-71.688976
2010-0091-CHL,Biobio province,Chile,-37.4464428,-72.1416132
2007-0263-CHL,Osorno district,Chile,-40.5764006,-73.1148018
2002-0089-CHL,Coquimbo province,Chile,-29.9591432,-71.339092499999992
2022-0823-CHL,Melipilla commune,Chile,-33.6831873,-71.2234926
2001-0285-CHL,Puerto Montt city,Chile,-41.4693622,-72.942440500000018
2000-0310-CHL,Valdivia district,Chile,-39.8173788,-73.242533299999991
2017-0529-CHL,Villa Santa Lucia,Chile,-43.4105078,-72.36783539999999
2019-0091-CHL,Arica y Parinacota,Chile,-18.5940485,-69.4784541
2024-0056-CHL,Viña del Mar City,Chile,-33.0153481,-71.550027599999993
2001-0471-CHL,Valparaiso district,Chile,-33.0473128,-71.6127458
2003-0042-CHL,Valparaiso province,Chile,-33.1649763,-71.6198686
2014-0118-CHL,Valparaiso province,Chile,-33.1649763,-71.6198686
2015-0092-CHL,Valparaiso province,Chile,-33.1649763,-71.6198686
2021-0069-CHL,Santiago Metropolitan,Chile,-33.4843354,-70.6216794
2024-0161-CHL,Valparaíso Municipality,Chile,-33.0473128,-71.6127458
2014-0094-CHL,Arica y Painacota province,Chile,-18.5940485,-69.4784541
2012-0070-CHL,Magallanes y Antartica chilena,Chile,-53.4428344,-72.1496817
2002-0847-CHL,Libertador Gral. Bernardo O'higgins,Chile,-34.5755374,-71.0022311
2002-0495-CHL,Aisen del Gral. Carlos Ibañez del Campo,Chile,-46.378345,-72.3007623
2004-0331-CHL,Aisen del Gral. Carlos Ibañez del Campo,Chile,-46.378345,-72.3007623
2010-0294-CHL,Aisen del Gral. Carlos Ibañez del Campo province,Chile,-46.378345,-72.3007623
2006-0745-CHN,Heze,China,35.2336299,115.48115
2018-0323-CHN,Yuxi,China,24.3472599,102.52744
2016-0137-CHN,Anhui,China,31.8615699,117.28565
2018-0050-CHN,Anhui,China,31.8615699,117.28565
2018-0053-CHN,Anhui,China,31.8615699,117.28565
2020-0322-CHN,Anhui,China,31.8615699,117.28565
2017-0363-CHN,Bijie,China,27.2984699,105.30504
2017-0372-CHN,Gansu,China,36.0594199,103.82634
2022-0045-CHN,Gansu,China,36.0594199,103.82634
2017-0284-CHN,Hebei,China,38.0359899,114.46979
2017-0214-CHN,Hubei,China,30.5453899,114.34234
2017-0245-CHN,Hunan,China,28.1142216,112.9833341
2007-0314-CHN,Jinan,China,36.6518399,117.12009
2012-0477-CHN,Wuhan,China,30.5927599,114.30525
2007-0405-CHN,Yibin,China,28.7512999,104.6417
2019-0259-CHN,Yibin,China,28.7512999,104.6417
2010-0239-CHN,Ankang,China,32.6848599,109.02932
2005-0334-CHN,Dazhou,China,31.2086399,107.46791
2014-0572-CHN,Dazhou,China,31.2086399,107.46791
2018-0250-CHN,Deyang,China,31.1267899,104.3979
2011-0135-CHN,Foshan,China,23.0218499,113.12192
2016-0373-CHN,Fujian,China,26.0998199,119.2965899
2017-0169-CHN,Fujian,China,26.0998199,119.2965899
2017-0187-CHN,Fujian,China,26.0998199,119.2965899
2018-0211-CHN,Fujian,China,26.0998199,119.2965899
2022-0316-CHN,Fujian,China,26.0998199,119.2965899
2008-0441-CHN,Ningde,China,26.6657099,119.54819
2021-0669-CHN,Shanxi,China,37.8734299,112.56272
2016-0536-CHN,Shimen,China,29.58412989999999,111.37982
2005-0474-CHN,Shiyan,China,32.6291799,110.79801
2012-0581-CHN,Suihua,China,46.6524599,126.96932
2020-0282-CHN,Tongzi,China,28.1332099,106.82502
2006-0300-CHN,Wuzhou,China,23.4769099,111.27917
2001-0486-CHN,Xining,China,36.6172899,101.77782
2003-0315-CHN,Xishui,China,30.4518399,115.26551
2017-0113-CHN,Yangbi,China,25.6699199,99.95814
2007-0414-CHN,Yantai,China,37.4635299,121.44801
2011-0411-CHN,Yining,China,43.9771499,81.52732
2019-0209-CHN,Yunnan,China,25.0452999,102.7097299
2024-0552-CHN,Zixing,China,25.9761899,113.23601
2022-0334-CHN,Baoxing,China,30.3680599,102.81457
2017-0261-CHN,Beijing,China,39.904211,116.407395
2018-0474-CHN,Guangxi,China,24.3255257,109.4154583
2021-9078-CHN,Guangxi,China,24.3255257,109.4154583
2004-0284-CHN,Huaihua,China,27.5697399,110.0016
2016-0241-CHN,Jiangsu,China,32.0607099,118.76295
2017-0110-CHN,Jiangsu,China,32.0607099,118.76295
2017-0287-CHN,Jiangsu,China,32.0607099,118.76295
2018-0118-CHN,Jiangxi,China,28.6741699,115.91004
2018-0210-CHN,Jiangxi,China,28.6741699,115.91004
2022-0004-CHN,Lijiang,China,26.8564799,100.2270999
2012-0136-CHN,Longnan,China,33.4009999,104.92166
2004-0303-CHN,Luodian,China,31.4115,121.34497
2008-0426-CHN,Maoming,China,21.6632899,110.92523
2021-0248-CHN,Nantong,China,31.9795799,120.89371
2006-0367-CHN,Qinzhou,China,21.9796999,108.65431
2020-0496-CHN,Shaanxi,China,34.2648599,108.95424
2018-0287-CHN,Shangai,China,31.230416,121.473701
2006-0336-CHN,Si Xian,China,33.6514899,118.09
2017-0254-CHN,Sichuan,China,30.6508899,104.07572
2017-0264-CHN,Sichuan,China,30.6508899,104.07572
2018-0198-CHN,Sichuan,China,30.6508899,104.07572
2022-0411-CHN,Sichuan,China,30.6508899,104.07572
2022-0428-CHN,Sichuan,China,30.6508899,104.07572
2023-0417-CHN,Sichuan,China,30.6508899,104.07572
2004-0412-CHN,Taizhou,China,28.6561099,121.42056
2005-0475-CHN,Tieling,China,42.2861999,123.84241
2012-0505-CHN,Yiliang,China,24.9200499,103.14119
2009-9283-CHN,Chaiyang,China,41.5734699,120.4508
2006-0297-CHN,Chenzhou,China,25.7706299,113.01485
2024-0423-CHN,Dongming,China,35.2895299,115.0901599
2004-0457-CHN,Nanchong,China,30.8379015,106.1105999
2019-0520-CHN,Neijiang,China,29.5801499,105.05844
2017-0513-CHN,Nyingchi,China,29.6489499,94.36155
2000-0372-CHN,Quanzhou,China,24.8740499,118.67583
2018-0348-CHN,Shanghai,China,31.230416,121.473701
2002-0481-CHN,Shaoguan,China,24.8103899,113.59723
2024-0234-CHN,Shaoguan,China,24.8103899,113.59723
2006-0340-CHN,Shaoyang,China,27.2388999,111.4677
2000-0200-CHN,Shenzhen,China,22.5428599,114.05956
2018-0341-CHN,Shenzhen,China,22.5428599,114.05956
2023-0615-CHN,Shenzhen,China,22.5428599,114.05956
2005-0145-CHN,Shigatse,China,29.2670499,88.88116
2011-0351-CHN,Shigatse,China,29.2670499,88.88116
2018-0252-CHN,Tianshui,China,34.5808499,105.72486
2023-0528-CHN,Yancheng,China,33.3495099,120.16164
2002-0659-CHN,Yongzhou,China,26.4203399,111.61225
2018-0347-CHN,Zhejiang,China,30.2655499,120.1536
2019-0333-CHN,Zhejiang,China,30.2655499,120.1536
2020-0308-CHN,Zhejiang,China,30.2655499,120.1536
2019-0472-CHN,Zhoushan,China,29.9853899,122.20778
2017-0143-CHN,Chongqing,China,29.5656843,106.5511838
2017-0463-CHN,Chongqing,China,29.5656843,106.5511838
2017-0476-CHN,Chongqing,China,29.5656843,106.5511838
2022-9524-CHN,Chongqing,China,29.5656843,106.5511838
2017-0485-CHN,Guangdong,China,23.1317099,113.26627
2018-0201-CHN,Guangdong,China,23.1317099,113.26627
2018-0305-CHN,Guangdong,China,23.1317099,113.26627
2023-0623-CHN,Guangdong,China,23.1317099,113.26627
2001-0241-CHN,Guangzhou,China,23.1290799,113.26436
2008-0243-CHN,Guangzhou,China,23.1290799,113.26436
2008-0369-CHN,Guangzhou,China,23.1290799,113.26436
2024-0265-CHN,Guangzhou,China,23.1290799,113.26436
2019-0134-CHN,Liangshan,China,27.8816399,102.26746
2024-0032-CHN,Liangshui,China,28.180359,103.680159
2021-0587-CHN,Lu County,China,29.1515999,105.38185
2011-0370-CHN,Luanchuan,China,33.7857599,111.61579
2006-0481-CHN,Luqu Xian,China,34.5910299,102.48699
2018-0215-CHN,Ningjiang,China,45.1718499,124.81698
2023-0551-CHN,Weiziping,China,35.98775,107.33254
2021-0507-CHN,Xiangyang,China,32.0089999,112.12255
2001-0008-CHN,Xilin Gol,China,43.9331999,116.04775
2006-0732-CHN,Yangjiang,China,21.8582899,111.98256
2004-0306-CHN,Yibin Shi,China,28.7512999,104.6417
2002-0835-CHN,Yumen Shi,China,40.2917599,97.045420000000007
2021-0428-CHN,Zhengzhou,China,34.7472499,113.62493
2003-0209-CHN,Bachu Xian,China,39.785189900000013,78.54906
2022-0001-CHN,Bijie City,China,27.2984699,105.30504
2003-0331-CHN,Funan Xian,China,32.4898899,115.54285
2013-0306-CHN,Fuqing Shi,China,25.7202399,119.38411
2008-0374-CHN,Huili area,China,26.6552699,102.24457
2003-0519-CHN,Minle Xian,China,38.4306399,100.81317
2000-0677-CHN,Xuwen area,China,20.3265199,110.17502
2017-0568-CHN,Yulin city,China,38.285199899999988,109.73458
2003-0394-CHN,Anhui Sheng,China,31.8615699,117.28565
2005-0492-CHN,Anhui Sheng,China,31.8615699,117.28565
2009-0499-CHN,Anhui Sheng,China,31.8615699,117.28565
2010-9701-CHN,Anhui Sheng,China,31.8615699,117.28565
2012-0571-CHN,Anhui Sheng,China,31.8615699,117.28565
2013-0065-CHN,Anhui Sheng,China,31.8615699,117.28565
2013-0219-CHN,Anhui Sheng,China,31.8615699,117.28565
2014-0214-CHN,Anhui Sheng,China,31.8615699,117.28565
2014-0552-CHN,Anhui Sheng,China,31.8615699,117.28565
2015-0219-CHN,Anhui Sheng,China,31.8615699,117.28565
2015-0255-CHN,Anhui Sheng,China,31.8615699,117.28565
2015-0303-CHN,Anhui Sheng,China,31.8615699,117.28565
2002-0180-CHN,Beijing Shi,China,39.904211,116.407395
2011-0421-CHN,Beijing Shi,China,39.904211,116.407395
2016-0257-CHN,Beijing Shi,China,39.904211,116.407395
2013-0081-CHN,Eryuan Xian,China,26.1111299,99.95088
2012-0292-CHN,Fangshan Qu,China,39.7346299,116.19186
2002-0350-CHN,Foping Xian,China,33.5244899,107.9905
2013-0221-CHN,Gansu Sheng,China,36.0594199,103.82634
2013-0416-CHN,Gansu Sheng,China,36.0594199,103.82634
2015-0251-CHN,Gansu Sheng,China,36.0594199,103.82634
2015-0334-CHN,Gansu Sheng,China,36.0594199,103.82634
2015-9328-CHN,Hebei Sheng,China,38.0359899,114.46979
2008-9662-CHN,Henan Sheng,China,34.7657099,113.75322
2009-0222-CHN,Henan Sheng,China,34.7657099,113.75322
2008-0598-CHN,Hubei Sheng,China,30.5453899,114.34234
2012-0260-CHN,Hubei Sheng,China,30.5453899,114.34234
2016-0140-CHN,Hubei Sheng,China,30.5453899,114.34234
2000-0557-CHN,Hunan Sheng,China,28.1142216,112.9833341
2003-9360-CHN,Hunan Sheng,China,28.1142216,112.9833341
2007-0380-CHN,Hunan Sheng,China,28.1142216,112.9833341
2009-0636-CHN,Hunan Sheng,China,28.1142216,112.9833341
2013-0272-CHN,Hunan Sheng,China,28.1142216,112.9833341
2015-0105-CHN,Hunan Sheng,China,28.1142216,112.9833341
2015-0248-CHN,Hunan Sheng,China,28.1142216,112.9833341
2016-0376-CHN,Hunan Sheng,China,28.1142216,112.9833341
2011-0601-CHN,Jiashi Xian,China,39.4880599,76.7237899
2000-9267-CHN,Jilin Sheng,China,43.8961599,125.3268
2013-0262-CHN,Jilin Sheng,China,43.8961599,125.3268
2016-9369-CHN,Jilin Sheng,China,43.8961599,125.3268
2011-0227-CHN,Kaihua Xian,China,29.1360899,118.41422
2002-0803-CHN,Leizhou Shi,China,20.9144399,110.09651
2023-0341-CHN,Leshan City,China,29.5522099,103.76539
2007-0315-CHN,Luntai Xian,China,41.7776299,84.25191
2013-0116-CHN,Lushan area,China,29.4482099,116.04512
2015-0078-CHN,Shawan area,China,44.3262799,85.61959
2023-0516-CHN,Shulan City,China,44.4058599,126.96532
2003-0724-CHN,Songkouzhen,China,24.50201,116.40836
2005-0381-CHN,Wenzhou Shi,China,27.9949199,120.69939
2014-0555-CHN,Xishui Xian,China,30.4518399,115.26551
2006-0397-CHN,Yanjin area,China,28.1085899,104.23467
2010-0464-CHN,Baoshan city,China,25.1120499,99.16181
2000-0425-CHN,Baoying Xian,China,33.2414199,119.35841
2023-0503-CHN,Beijing city,China,39.904211,116.407395
2024-0482-CHN,Chengxi town,China,24.38977,117.59066
2020-0260-CHN,Danba County,China,30.8786799,101.89077
2010-0415-CHN,Dandong city,China,39.9997999,124.35601
2010-0623-CHN,Daofu county,China,30.9793599,101.12508
2001-0292-CHN,Fujian Sheng,China,26.0998199,119.2965899
2005-0565-CHN,Fujian Sheng,China,26.0998199,119.2965899
2006-0362-CHN,Fujian Sheng,China,26.0998199,119.2965899
2009-0321-CHN,Fujian Sheng,China,26.0998199,119.2965899
2010-0484-CHN,Fujian Sheng,China,26.0998199,119.2965899
2010-0691-CHN,Fujian Sheng,China,26.0998199,119.2965899
2013-0222-CHN,Fujian Sheng,China,26.0998199,119.2965899
2013-0429-CHN,Fujian Sheng,China,26.0998199,119.2965899
2014-0110-CHN,Fujian Sheng,China,26.0998199,119.2965899
2014-0240-CHN,Fujian Sheng,China,26.0998199,119.2965899
2014-0321-CHN,Fujian Sheng,China,26.0998199,119.2965899
2015-0458-CHN,Fujian Sheng,China,26.0998199,119.2965899
2003-0274-CHN,Gongliu Xian,China,34.1488,109.19896
2005-0540-CHN,Hainan Sheng,China,20.0199699,110.34863
2008-0155-CHN,Hainan Sheng,China,20.0199699,110.34863
2009-0422-CHN,Hainan Sheng,China,20.0199699,110.34863
2012-0406-CHN,Hainan Sheng,China,20.0199699,110.34863
2013-0089-CHN,Hainan Sheng,China,20.0199699,110.34863
2013-0419-CHN,Hainan Sheng,China,20.0199699,110.34863
2013-0554-CHN,Hainan Sheng,China,20.0199699,110.34863
2014-0227-CHN,Hainan Sheng,China,20.0199699,110.34863
2014-0390-CHN,Hainan Sheng,China,20.0199699,110.34863
2016-0363-CHN,Hainan Sheng,China,20.0199699,110.34863
2004-0182-CHN,Hengyang Shi,China,26.8931586,112.5719704
2019-0291-CHN,Kaiyuan city,China,42.5464499,124.0382
2011-0268-CHN,Lueyang area,China,33.3273299,106.1566
2006-0061-CHN,Mojiang area,China,23.4318499,101.69223
2024-0270-CHN,Near Meizhou,China,24.2884399,116.12264
2010-0673-CHN,Ningnan area,China,27.0666699,102.76052
2000-0156-CHN,Qi Xian area,China,35.6078599,114.19766
2010-0530-CHN,Qionghai Shi,China,19.2583799,110.47464
2024-0568-CHN,Ridi Village,China,30.068962,102.104588
2002-0406-CHN,Shanghai Shi,China,31.230416,121.473701
2005-0419-CHN,Shanghai Shi,China,31.230416,121.473701
2005-0510-CHN,Shanghai Shi,China,31.230416,121.473701
2011-0279-CHN,Shanghai Shi,China,31.230416,121.473701
2005-9746-CHN,Shanxi Sheng,China,37.8734299,112.56272
2016-0230-CHN,Shanxi Sheng,China,37.8734299,112.56272
2008-0519-CHN,Wenchang Shi,China,19.5432899,110.79774
2022-0515-CHN,Xuwen county,China,20.3265199,110.17502
2001-0064-CHN,Yajiang Xian,China,30.0314499,101.0142599
2016-0023-CHN,Yakeshi city,China,49.2856299,120.71174
2012-0350-CHN,Yiliang area,China,24.9200499,103.14119
2000-0033-CHN,Yongren Xian,China,26.0561499,101.66982
2008-0507-CHN,Yunnan Sheng,China,25.0452999,102.7097299
2009-9655-CHN,Yunnan Sheng,China,25.0452999,102.7097299
2013-9062-CHN,Yunnan Sheng,China,25.0452999,102.7097299
2015-0162-CHN,Yunnan Sheng,China,25.0452999,102.7097299
2015-0214-CHN,Yunnan Sheng,China,25.0452999,102.7097299
2004-0302-CHN,Chongqing Shi,China,29.5656843,106.5511838
2013-0202-CHN,Chongqing Shi,China,29.5656843,106.5511838
2015-0395-CHN,Chongqing Shi,China,29.5656843,106.5511838
2016-0238-CHN,Chongqing Shi,China,29.5656843,106.5511838
2022-0530-CHN,Datong County,China,36.9269399,101.68545
2004-0680-CHN,Delingha area,China,37.3694699,97.360869999999991
2007-0172-CHN,Garze Tibetan,China,30.04932419999999,101.9625302
2008-0212-CHN,Guizhou Sheng,China,26.5981999,106.70722
2012-0570-CHN,Guizhou Sheng,China,26.5981999,106.70722
2014-0180-CHN,Guizhou Sheng,China,26.5981999,106.70722
2014-0212-CHN,Guizhou Sheng,China,26.5981999,106.70722
2014-0266-CHN,Guizhou Sheng,China,26.5981999,106.70722
2014-0267-CHN,Guizhou Sheng,China,26.5981999,106.70722
2014-0323-CHN,Guizhou Sheng,China,26.5981999,106.70722
2015-0131-CHN,Guizhou Sheng,China,26.5981999,106.70722
2015-0163-CHN,Guizhou Sheng,China,26.5981999,106.70722
2015-0220-CHN,Guizhou Sheng,China,26.5981999,106.70722
2015-0247-CHN,Guizhou Sheng,China,26.5981999,106.70722
2017-0281-CHN,Hainan Island,China,20.0199699,110.34863
2020-0425-CHN,Hainan Island,China,20.0199699,110.34863
2022-0397-CHN,Hainan Island,China,20.0199699,110.34863
2008-0140-CHN,Huocheng area,China,44.0559899,80.87899
2005-0395-CHN,Jiangsu Sheng,China,32.0607099,118.76295
2009-0292-CHN,Jiangsu Sheng,China,32.0607099,118.76295
2011-0212-CHN,Jiangsu Sheng,China,32.0607099,118.76295
2012-0283-CHN,Jiangsu Sheng,China,32.0607099,118.76295
2015-0240-CHN,Jiangsu Sheng,China,32.0607099,118.76295
2016-0209-CHN,Jiangsu Sheng,China,32.0607099,118.76295
2016-0236-CHN,Jiangsu Sheng,China,32.0607099,118.76295
2002-0599-CHN,Jiangxi Sheng,China,28.6741699,115.91004
2006-0199-CHN,Jiangxi Sheng,China,28.6741699,115.91004
2006-0388-CHN,Jiangxi Sheng,China,28.6741699,115.91004
2009-0219-CHN,Jiangxi Sheng,China,28.6741699,115.91004
2012-0282-CHN,Jiangxi Sheng,China,28.6741699,115.91004
2013-0567-CHN,Jiangxi Sheng,China,28.6741699,115.91004
2014-0085-CHN,Jiangxi Sheng,China,28.6741699,115.91004
2016-0095-CHN,Jiangxi Sheng,China,28.6741699,115.91004
2009-0285-CHN,Jixi district,China,45.2952399,130.96954
2009-0284-CHN,Kangding area,China,30.0544099,101.96308
2000-0532-CHN,Nanzheng Xian,China,32.7356399,106.87045
2023-0021-CHN,Nyingchi City,China,29.6489499,94.36155
2021-0655-CHN,Puxian County,China,36.4117899,111.09648
2013-0273-CHN,Qinghai Sheng,China,36.6208699,101.7801099
2009-0487-CHN,Shaanxi Sheng,China,34.2648599,108.95424
2014-0269-CHN,Shaanxi Sheng,China,34.2648599,108.95424
2005-0339-CHN,Shanghai city,China,31.230416,121.473701
2019-0161-CHN,Shenzhen City,China,22.5428599,114.05956
2023-0568-CHN,Shenzhen City,China,22.5428599,114.05956
2006-0304-CHN,Shiji village,China,36.46475,112.51547
2000-0326-CHN,Sichuan Sheng,China,30.6508899,104.07572
2000-0330-CHN,Sichuan Sheng,China,30.6508899,104.07572
2001-9218-CHN,Sichuan Sheng,China,30.6508899,104.07572
2005-0188-CHN,Sichuan Sheng,China,30.6508899,104.07572
2006-9741-CHN,Sichuan Sheng,China,30.6508899,104.07572
2007-0268-CHN,Sichuan Sheng,China,30.6508899,104.07572
2008-0249-CHN,Sichuan Sheng,China,30.6508899,104.07572
2011-0002-CHN,Sichuan Sheng,China,30.6508899,104.07572
2014-0107-CHN,Sichuan Sheng,China,30.6508899,104.07572
2014-0132-CHN,Sichuan Sheng,China,30.6508899,104.07572
2014-0215-CHN,Sichuan Sheng,China,30.6508899,104.07572
2014-0217-CHN,Sichuan Sheng,China,30.6508899,104.07572
2014-0344-CHN,Sichuan Sheng,China,30.6508899,104.07572
2014-0389-CHN,Sichuan Sheng,China,30.6508899,104.07572
2015-0397-CHN,Sichuan Sheng,China,30.6508899,104.07572
2016-0194-CHN,Sichuan Sheng,China,30.6508899,104.07572
2016-0198-CHN,Sichuan Sheng,China,30.6508899,104.07572
2016-0233-CHN,Sichuan Sheng,China,30.6508899,104.07572
2016-0389-CHN,Sichuan Sheng,China,30.6508899,104.07572
2008-0192-CHN,Wenchuan Xian,China,31.4768599,103.5903
2010-0394-CHN,Wenchuan area,China,31.4768599,103.5903
2006-0464-CHN,Xinsi village,China,35.4263,105.23213
2016-0235-CHN,Yancheng city,China,33.3495099,120.16164
2015-0125-CHN,Zhenkang Xian,China,23.7630999,98.82543
2017-0331-CHN,Aba prefecture,China,31.8993999,102.22477
2006-0371-CHN,Altay district,China,48.303041,89.51047779999999
2009-0378-CHN,Changning area,China,31.2202399,121.42394
2010-0262-CHN,Dazhai village,China,25.806202,110.156601
2000-0376-CHN,Duyun Shi area,China,26.2597899,107.51867
2013-0242-CHN,Gannan Tibetan,China,34.9832699,102.9110199
2004-0310-CHN,Guangzhou city,China,23.1290799,113.26436
2001-0322-CHN,Hepu Xian area,China,21.6608899,109.20725
2024-0542-CHN,Hunan province,China,28.1142216,112.9833341
2021-0158-CHN,Inner Mongolia,China,40.8173299,111.76522
2005-0751-CHN,Jilin district,China,43.8378399,126.54944
2014-9408-CHN,Liaoning Sheng,China,41.8357099,123.42925
2013-0257-CHN,Meijia village,China,35.95668,102.40202
2000-0036-CHN,Mile Xian area,China,24.4105899,103.41499
2009-0613-CHN,Panzhihua city,China,26.5822799,101.71872
2016-0250-CHN,Pianpo village,China,26.72373,109.32683
2007-0217-CHN,Pu'er district,China,22.8252099,100.96624
2008-0325-CHN,Qingchuan area,China,32.5840999,105.23822
2002-0655-CHN,Rulong village,China,30.202302,119.794133
2014-9265-CHN,Shandong Sheng,China,36.6682599,117.02076
2016-0340-CHN,Shandong Sheng,China,36.6682599,117.02076
2005-0730-CHN,Shunchang Xian,China,26.7930099,117.81036
2008-0398-CHN,Taoshi village,China,33.317254,118.98708
2001-0716-CHN,Wuhai district,China,30.6014699,114.27096
2024-0158-CHN,Yajiang County,China,30.0314499,101.0142599
2008-0355-CHN,Yingjiang area,China,24.7051899,97.9318399
2014-0173-CHN,Yingjiang area,China,24.7051899,97.9318399
2014-0177-CHN,Yingjiang area,China,24.7051899,97.9318399
2004-0435-CHN,Zhejiang Sheng,China,30.2655499,120.1536
2006-0437-CHN,Zhejiang Sheng,China,30.2655499,120.1536
2007-0552-CHN,Zhejiang Sheng,China,30.2655499,120.1536
2008-0020-CHN,Zhejiang Sheng,China,30.2655499,120.1536
2012-0455-CHN,Zhenhe village,China,27.6898299,104.33358
2007-0448-CHN,Ankang district,China,32.6848599,109.02932
2000-0426-CHN,Baiyu Xian area,China,31.2101399,98.82418
2011-0387-CHN,Dabancheng area,China,43.3637799,88.311039999999991
2003-0348-CHN,Dayao Xian area,China,25.7217899,101.3244
2003-0509-CHN,Dayao Xian area,China,25.7217899,101.3244
2012-0199-CHN,Dazhou district,China,31.2086399,107.46791
2001-0389-CHN,Donghua village,China,25.9483699,118.27363
2017-0326-CHN,Fujian province,China,26.0998199,119.2965899
2018-0285-CHN,Fujian province,China,26.0998199,119.2965899
2014-0337-CHN,Fuquan Shi area,China,26.6865099,107.5207
2000-0270-CHN,Guangdong Sheng,China,23.1317099,113.26627
2001-0405-CHN,Guangdong Sheng,China,23.1317099,113.26627
2001-0796-CHN,Guangdong Sheng,China,23.1317099,113.26627
2002-9203-CHN,Guangdong Sheng,China,23.1317099,113.26627
2003-0185-CHN,Guangdong Sheng,China,23.1317099,113.26627
2003-0443-CHN,Guangdong Sheng,China,23.1317099,113.26627
2006-0410-CHN,Guangdong Sheng,China,23.1317099,113.26627
2006-0517-CHN,Guangdong Sheng,China,23.1317099,113.26627
2009-0621-CHN,Guangdong Sheng,China,23.1317099,113.26627
2011-0576-CHN,Guangdong Sheng,China,23.1317099,113.26627
2012-0259-CHN,Guangdong Sheng,China,23.1317099,113.26627
2012-0294-CHN,Guangdong Sheng,China,23.1317099,113.26627
2013-0200-CHN,Guangdong Sheng,China,23.1317099,113.26627
2013-0249-CHN,Guangdong Sheng,China,23.1317099,113.26627
2013-0261-CHN,Guangdong Sheng,China,23.1317099,113.26627
2015-0457-CHN,Guangdong Sheng,China,23.1317099,113.26627
2016-0038-CHN,Guangdong Sheng,China,23.1317099,113.26627
2009-0249-CHN,Guantun village,China,42.639202,123.571476
2004-0301-CHN,Handan district,China,36.6255599,114.53918
2016-0255-CHN,Kunlun mountain,China,36.0,84.0
2003-0402-CHN,Lindong village,China,43.968169,119.375532
2015-0510-CHN,Lindong village,China,43.968169,119.375532
2003-0227-CHN,Linwu Xian area,China,25.2759599,112.56295
2014-0281-CHN,Longtoushanzhen,China,41.98575,117.69802
2004-0677-CHN,Lufeng Shi area,China,22.9451099,115.64462
2007-0333-CHN,Lushi Xian area,China,34.0543799,111.04783
2020-0276-CHN,Mianning county,China,28.5501799,102.1767799
2017-0044-CHN,Nanzhang county,China,31.7747099,111.83902
2005-0592-CHN,Shiyan district,China,32.6291799,110.79801
2005-0600-CHN,Weinan district,China,34.4999699,109.51015
2023-0357-CHN,Wenchuan County,China,31.4768599,103.5903
2019-0400-CHN,Wenchuan county,China,31.4768599,103.5903
2017-0124-CHN,Xinjiang region,China,43.7934299,87.6271
2012-0610-CHN,Yantai Shi area,China,37.4635299,121.44801
2008-0292-CHN,Yuexi Xian area,China,30.7776499,116.23331
2023-0268-CHN,Yunnan Province,China,25.0452999,102.7097299
2010-0169-CHN,Yushu Xian area,China,33.0052799,97.0065
2015-0339-CHN,Zheijiang Sheng,China,30.2655499,120.1536
2003-0441-CHN,Ziyang Shi area,China,30.128589899999991,104.6279799
2004-0522-CHN,Baoshan district,China,31.4052699,121.48941
2013-0314-CHN,Benzilan village,China,28.239601,99.299782
2006-0620-CHN,Chifeng district,China,42.2585999,118.88894
2021-0380-CHN,Jiangxi Province,China,28.6741699,115.91004
2023-0285-CHN,Jiangxi Province,China,28.6741699,115.91004
2013-0581-CHN,Keping Xian area,China,34.2658138,108.9540936
2001-0385-CHN,Kunming district,China,25.0384499,102.66481
2010-0087-CHN,Kunming district,China,25.0384499,102.66481
2000-0298-CHN,Lanzhou Shi area,China,36.0613799,103.83417
2003-0547-CHN,Ludian Xian area,China,27.1866399,103.55792
2003-0596-CHN,Ludian Xian area,China,27.1866399,103.55792
2004-0406-CHN,Ludian Xian area,China,27.1866399,103.55792
2008-0241-CHN,Luliang district,China,37.5193399,111.14165
2004-0372-CHN,Lushui Xian area,China,25.8230599,98.85804
2010-0405-CHN,Mianzhu Shi area,China,31.3377599,104.22083
2002-0361-CHN,Shantong village,China,30.51017,107.4877
2006-0251-CHN,Shantou district,China,23.3652499,116.7054
2014-0213-CHN,Shantou district,China,23.3652499,116.7054
2005-0344-CHN,Shaoping village,China,22.08965,106.92804
2019-0367-CHN,Shuicheng County,China,26.5465799,104.95764
2019-0096-CHN,Sichuan Province,China,30.6508899,104.07572
2022-0567-CHN,Sichuan province,China,30.6508899,104.07572
2006-0298-CHN,Wangmo Xian area,China,25.1782399,106.09962
2007-0387-CHN,Wenzhou district,China,27.9949199,120.69939
2000-0527-CHN,Wuding Xian area,China,25.5303799,102.40442
2009-0218-CHN,Wulong Xian area,China,29.3254299,107.75993
2014-0086-CHN,Yutian Xian area,China,36.8572799,81.67712
2003-0582-CHN,Zhaosu Xian area,China,43.1572399,81.131019999999992
2008-0652-CHN,Zhoukou district,China,33.6258299,114.6969499
2010-0377-CHN,Zhouqu Xian area,China,33.3777099,104.40416
2002-0570-CHN,Cangnan Xian area,China,27.5174299,120.42631
2002-0483-CHN,Chenzhou Shi area,China,25.7706299,113.01485
2008-0263-CHN,Dangyang Shi area,China,30.8211799,111.78833
2013-0084-CHN,Dongguan district,China,23.028053,113.783327
2014-0292-CHN,Fengjie Xian area,China,31.0185505,109.4009301
2001-0360-CHN,Funing Xiang area,China,33.7593099,119.80258
2001-0356-CHN,Hangzhou district,China,30.2596099,120.13026
2009-0313-CHN,Hanyuan Xian area,China,29.3445699,102.65261
2010-0354-CHN,Hanyuan Xian area,China,29.3445699,102.65261
2008-0416-CHN,Jinghong Shi area,China,22.0000799,100.77163
2006-0266-CHN,Jingzhou district,China,30.33478989999999,112.24069
2005-0651-CHN,Jiujiang district,China,31.3688599,118.40837
2000-0350-CHN,Quanzhou district,China,23.1579199,113.27324
2016-0350-CHN,Quanzhou district,China,23.1579199,113.27324
2002-0691-CHN,Shaoguan Shi area,China,24.8103899,113.59723
2015-0144-CHN,Shigatse district,China,29.2670499,88.88116
2015-0175-CHN,Shigatse district,China,29.2670499,88.88116
2001-0741-CHN,Suining Xian area,China,33.9127399,117.94108
2014-0544-CHN,Weiyuan Xian area,China,35.1362599,104.21502
2011-0203-CHN,Xianning district,China,29.8412599,114.32245
2024-0035-CHN,Xinjiang Province,China,43.7934299,87.6271
2007-0137-CHN,Xuanhan Xian area,China,31.3538599,107.7271
2012-0397-CHN,Yangzhou district,China,32.3935799,119.41269
2021-0498-CHN,Zhejiang Province,China,30.2655499,120.1536
2013-0245-CHN,Zhongxing village,China,27.82564,120.7814
2013-0317-CHN,Heilongjiang Sheng,China,45.7420799,126.66285
2014-0519-CHN,Heilongjiang Sheng,China,45.7420799,126.66285
2006-0567-CHN,Honghe Hani and Yi,China,23.3642199,103.3756
2001-0540-CHN,Mingshan Xian area,China,30.0698199,103.10954
2012-0173-CHN,Nei Mongol Zizhiqu,China,40.8173299,111.76522
2015-0534-CHN,Nei Mongol Zizhiqu,China,40.8173299,111.76522
2003-0440-CHN,Ningshan Xian area,China,33.3104899,108.31428
2001-0526-CHN,Panzhihua district,China,26.5822799,101.71872
2020-0244-CHN,Qiaojia and Ludian,China,27.1866399,103.55792
2010-0682-CHN,Shuanghuyu village,China,37.61514,110.02856
2007-0297-CHN,Tianchang Shi area,China,32.6894499,119.00355
2021-0732-CHN,Tongliao City area,China,43.6524699,122.24469
2002-0344-CHN,Tuokexun Xian area,China,34.2658138,108.9540936
2002-0645-CHN,Xianfeng Xian area,China,29.6652099,109.13963
2006-0323-CHN,Yongding Xian area,China,24.7230299,116.73202
2014-0449-CHN,Yongping Xian area,China,25.4645399,99.54097999999999
2008-0329-CHN,Zhanjiang district,China,21.2713399,110.35894
2016-0379-CHN,Zhanjiang district,China,21.2713399,110.35894
2013-0018-CHN,Zhaojiagou village,China,31.294903260197749,121.6281171308576
2002-0448-CHN,Zhengzhou district,China,34.7997699,113.66072
2004-0619-CHN,Zuojiaying village,China,26.734507,104.824709
2013-0259-CHN,Dujiangyan Shi area,China,30.9883699,103.64662
2000-0163-CHN,Ili Kazakh district,China,43.916889900000008,81.324159999999992
2002-0278-CHN,Ili Kazakh district,China,43.916889900000008,81.324159999999992
2005-0307-CHN,Shalanzhen villages,China,44.17143,128.99209
2006-0394-CHN,Shizuishan district,China,38.9840999,106.38418
2004-0287-CHN,Shuicheng Xian area,China,26.5465799,104.95764
2007-0313-CHN,Tengchong Xian area,China,25.0205299,98.49096999999999
2000-0556-CHN,Xiangshui Xian area,China,34.1991899,119.57839
2014-0129-CHN,Xiluoduzhen village,China,28.232395,103.632009
2000-0559-CHN,Yingjiang Xian area,China,24.7051899,97.9318399
2001-0573-CHN,Yongsheng Xian area,China,34.56874,109.28255
2006-0337-CHN,Zhenxiong Xian area,China,27.4414999,104.8736
2005-0413-CHN,Anhui Sheng province,China,31.8615699,117.28565
2009-0224-CHN,Anhui Sheng province,China,31.8615699,117.28565
2005-0312-CHN,Beijing Shi province,China,39.904211,116.407395
2023-0522-CHN,Dezhou and Liaocheng,China,36.4570199,115.9854899
2004-0247-CHN,Enshi Tujia and Miao,China,28.3117299,109.73893
2004-0571-CHN,Gansu Sheng province,China,36.0594199,103.82634
2002-9564-CHN,Hebei Sheng province,China,38.0359899,114.46979
2006-0586-CHN,Hubei Sheng province,China,30.5453899,114.34234
2007-0296-CHN,Hubei Sheng province,China,30.5453899,114.34234
2002-0305-CHN,Hunan Sheng province,China,28.1142216,112.9833341
2014-0549-CHN,Hunan Sheng province,China,28.1142216,112.9833341
2015-0533-CHN,Hunan Sheng province,China,28.1142216,112.9833341
2010-0344-CHN,Jilin Sheng province,China,43.8961599,125.3268
2020-0119-CHN,Liangshan Prefecture,China,27.8816399,102.26746
2020-0355-CHN,Zhangzhou Prefecture,China,24.5134699,117.64725
2009-0500-CHN,Zhongyang Xiang area,China,31.532412,120.396514
2006-0264-CHN,Fujian Sheng province,China,26.0998199,119.2965899
2010-0543-CHN,Fujian Sheng province,China,26.0998199,119.2965899
2016-0256-CHN,Fujian Sheng province,China,26.0998199,119.2965899
2016-0342-CHN,Fujian Sheng province,China,26.0998199,119.2965899
2000-0605-CHN,Hainan Sheng province,China,20.0199699,110.34863
2003-0594-CHN,Hainan Sheng province,China,20.0199699,110.34863
2010-0308-CHN,Hainan Sheng province,China,20.0199699,110.34863
2013-0341-CHN,Hainan Sheng province,China,20.0199699,110.34863
2013-0433-CHN,Hainan Sheng province,China,20.0199699,110.34863
2015-0252-CHN,Hainan Sheng province,China,20.0199699,110.34863
2019-0469-CHN,Heilongjiang province,China,45.7420799,126.66285
2013-0167-CHN,Mozhugongka Xian area,China,34.2658138,108.9540936
2016-0526-CHN,Near Shihezi district,China,44.3065299,86.078930000000014
2013-0582-CHN,Shanghai Shi province,China,31.230416,121.473701
2006-0357-CHN,Shanxi Sheng province,China,37.8734299,112.56272
2009-0299-CHN,Shijiazhuang district,China,38.0508999,114.46312
2002-0508-CHN,Yunnan Sheng province,China,25.0452999,102.7097299
2005-0123-CHN,Yunnan Sheng province,China,25.0452999,102.7097299
2008-0073-CHN,Yunnan Sheng province,China,25.0452999,102.7097299
2008-0588-CHN,Yunnan Sheng province,China,25.0452999,102.7097299
2011-0090-CHN,Yunnan Sheng province,China,25.0452999,102.7097299
2015-0491-CHN,Yunnan Sheng province,China,25.0452999,102.7097299
2002-0531-CHN,Chongqing Shi province,China,29.5656843,106.5511838
2009-0235-CHN,Chongqing Shi province,China,29.5656843,106.5511838
2009-0642-CHN,Chongqing Shi province,China,29.5656843,106.5511838
2010-0179-CHN,Chongqing Shi province,China,29.5656843,106.5511838
2004-0299-CHN,Guizhou Sheng province,China,26.5981999,106.70722
2006-0250-CHN,Guizhou Sheng province,China,26.5981999,106.70722
2009-0227-CHN,Guizhou Sheng province,China,26.5981999,106.70722
2010-0667-CHN,Guizhou Sheng province,China,26.5981999,106.70722
2004-0325-CHN,Jiangxi Sheng province,China,28.6741699,115.91004
2007-0166-CHN,Jiangxi Sheng province,China,28.6741699,115.91004
2012-0200-CHN,Shaanxi Sheng province,China,34.2648599,108.95424
2012-0603-CHN,Shaanxi Sheng province,China,34.2648599,108.95424
2008-0650-CHN,Sichuan Sheng province,China,30.6508899,104.07572
2014-0464-CHN,Sichuan Sheng province,China,30.6508899,104.07572
2015-0160-CHN,Sichuan Sheng province,China,30.6508899,104.07572
2014-0133-CHN,Xinjiang Uygur Zizhiqu,China,43.7934299,87.6271
2015-0132-CHN,Xinjiang Uygur Zizhiqu,China,43.7934299,87.6271
2023-0838-CHN,Gansu province; Haidong,China,36.0594199,103.82634
2002-9854-CHN,Shandong Sheng province,China,36.6682599,117.02076
2012-0559-CHN,Xizang Zizhiqu province,China,29.6472399,91.117449999999991
2007-0457-CHN,Zhejiang Sheng province,China,30.2655499,120.1536
2014-0330-CHN,Zhejiang Sheng province,China,30.2655499,120.1536
2015-0244-CHN,Zhejiang Sheng province,China,30.2655499,120.1536
2000-9626-CHN,Guangdong Sheng province,China,23.1317099,113.26627
2001-0305-CHN,Guangdong Sheng province,China,23.1317099,113.26627
2001-0419-CHN,Guangdong Sheng province,China,23.1317099,113.26627
2001-0795-CHN,Guangdong Sheng province,China,23.1317099,113.26627
2005-9745-CHN,Guangdong Sheng province,China,23.1317099,113.26627
2009-0399-CHN,Guangdong Sheng province,China,23.1317099,113.26627
2013-0201-CHN,Guangdong Sheng province,China,23.1317099,113.26627
2013-0373-CHN,Guangdong Sheng province,China,23.1317099,113.26627
2014-0550-CHN,Guangdong Sheng province,China,23.1317099,113.26627
2015-0278-CHN,Guangdong Sheng province,China,23.1317099,113.26627
2016-0364-CHN,Guangdong Sheng province,China,23.1317099,113.26627
2016-0371-CHN,Guangdong Sheng province,China,23.1317099,113.26627
2003-0346-CHN,Guangxi Zhuangzu Zizhiqu,China,24.3255257,109.4154583
2011-0379-CHN,Guangxi Zhuangzu Zizhiqu,China,24.3255257,109.4154583
2012-0576-CHN,Guangxi Zhuangzu Zizhiqu,China,24.3255257,109.4154583
2013-0199-CHN,Guangxi Zhuangzu Zizhiqu,China,24.3255257,109.4154583
2013-0258-CHN,Guangxi Zhuangzu Zizhiqu,China,24.3255257,109.4154583
2014-0406-CHN,Guangxi Zhuangzu Zizhiqu,China,24.3255257,109.4154583
2015-0490-CHN,Guangxi Zhuangzu Zizhiqu,China,24.3255257,109.4154583
2013-0264-CHN,Shandong Sheng provinces,China,36.6682599,117.02076
2018-0159-CHN,Guangxi Zhuang Autonomous,China,22.8152099,108.32754
2006-0339-CHN,Sandu Shui Zizhixian area,China,25.9832599,107.86971
2009-0059-CHN,Chabucha'er Xibo Zizhixian,China,43.8407199,81.15128
2001-0214-CHN,Ninglang Yi Zizhixian area,China,27.2819599,100.85198
2012-0190-CHN,Ninglang Yi Zizhixian area,China,27.2819599,100.85198
2021-0255-CHN,Hubei Province; Suzhou City,China,31.298339899999991,120.58319
2000-9531-CHN,Nei Mongol Zizhiqu province,China,40.8173299,111.76522
2001-9149-CHN,Nei Mongol Zizhiqu province,China,40.8173299,111.76522
2003-9064-CHN,Nei Mongol Zizhiqu province,China,40.8173299,111.76522
2000-0041-CHN,Xiuyan Manzu Zizhixian area,China,40.2899799,123.28171
2019-0381-CHN,Duobi Gorge in Hefeng County,China,29.7768438,109.8234087
2023-0464-CHN,Fujian Province; Shijiazhuang,China,26.0998199,119.2965899
2004-0292-CHN,Xinjiang Uygur Zizhiqu province,China,43.7934299,87.6271
2008-0651-CHN,Xinjiang Uygur Zizhiqu province,China,43.7934299,87.6271
2010-0036-CHN,Xinjiang Uygur Zizhiqu province,China,43.7934299,87.6271
2012-0338-CHN,Xinjiang Uygur Zizhiqu province,China,43.7934299,87.6271
2012-0536-CHN,Xinjiang Uygur Zizhiqu province,China,43.7934299,87.6271
2012-0604-CHN,Xinjiang Uygur Zizhiqu province,China,43.7934299,87.6271
2016-0480-CHN,Xinjinag Uygur Zizhiqu province,China,43.7934299,87.6271
2019-0387-CHN,Zhejiang and Shandong provinces,China,30.2655499,120.1536
2021-0201-CHN,Xinjiang Uygur Autonomous Region,China,43.7934299,87.6271
2001-0768-CHN,Zhenyuan Yi-Hani-Lahu Zizhi area,China,24.0046097,101.1084303
2021-0329-CHN,Chuxiong Yi Autonomous Prefecture,China,25.0449495,101.5276703
2001-0740-CHN,Guangxi Zhuangzu Zizhiqu province,China,24.3255257,109.4154583
2010-0216-CHN,Guangxi Zhuangzu Zizhiqu province,China,24.3255257,109.4154583
2005-0274-CHN,Haixi Mongol and Tibetan district,China,37.3770999,97.371220000000008
2021-0829-CHN,Jiangcheng Hani and Yi Autonomous County,China,22.5851799,101.86237
2022-0748-COG,Betou,Congo,3.0625711,18.5181188
2021-0810-COG,Bétou,Congo,3.0625711,18.5181188
2019-0561-COG,Likouala,Congo,2.043924000000001,17.668887
2023-0868-COG,Likouala,Congo,2.043924000000001,17.668887
2007-0590-COG,Tsiémé,Congo,-4.2411715,15.3039034
2019-0664-COG,Brazzaville,Congo,-4.2744405,15.2812803
2020-0125-COG,Brazzaville,Congo,-4.2744405,15.2812803
2020-0509-COG,Likouala region,Congo,2.043924000000001,17.668887
2005-0711-COG,Brazzaville district,Congo,-4.2744405,15.2812803
2012-0497-COG,Brazzaville district,Congo,-4.2744405,15.2812803
2012-0479-COG,Pointe-Noire district,Congo,-4.7994395,11.8777664
2015-0342-EGY,Cairo,Egypt,30.0444196,31.2357116
2020-0102-EGY,Cairo,Egypt,30.0444196,31.2357116
2015-0606-EGY,Behera,Egypt,30.8480986,30.3435506
2000-0092-EGY,Kalyoubia,Egypt,30.2219859,31.3084088
2004-0026-EGY,Alexandria,Egypt,31.2000924,29.9187387
2016-0359-EGY,South Sinai,Egypt,28.9709768,33.617577
2002-0545-EGY,Cairo province,Egypt,30.0444196,31.2357116
2021-0737-EGY,Aswan Governorate,Egypt,23.6966498,32.7181375
2015-0605-EGY,Alexandria province,Egypt,31.2000924,29.9187387
2010-0021-EGY,El Arish 1 district,Egypt,31.0711375,33.9080896
2023-0412-GAB,Haut Ogoue,Gabon,-1.4762544,13.914399
2009-0170-GAB,Mouila town,Gabon,-1.8697188,11.0542052
2010-0166-GAB,Mouila town,Gabon,-1.8697188,11.0542052
2010-0698-GAB,Tchibanga town,Gabon,-2.9278774,10.997658
2001-0314-GHA,Accra,Ghana,5.5592846000000007,-0.1974306
2009-0236-GHA,Awoshie,Ghana,5.5866077999999986,-0.2772644
2013-0122-GHA,Gushiegu,Ghana,9.921294099999999,-0.2174318
2021-0610-GHA,Chereponi,Ghana,10.1393874,0.2925305
2010-0246-GHA,Agona East,Ghana,5.6033998,-0.6393702
2018-0368-GHA,Bakwu West,Ghana,10.8447627,-0.4879916
2019-0488-GHA,Bolgatanga,Ghana,10.7875419,-0.8579818
2010-0483-GHA,Brong Ahafo,Ghana,7.9559247,-1.6760691
2007-0441-GHA,Builsa North,Ghana,10.752383,-1.2506002
2011-0413-GHA,Greater Accra,Ghana,5.8142836,0.0746767
2017-0306-GHA,Greater Accra,Ghana,5.8142836,0.0746767
2008-0630-GHA,West Mamprusi,Ghana,10.3487285,-0.82940019999999992
2015-0217-GHA,Accra Metropolis,Ghana,5.5459415,-0.2103988
2011-0270-GHA,Eastern province,Ghana,6.5781373,-0.4502368
2009-0376-GHA,Northern province,Ghana,9.367277099999999,-0.1494988
2017-0083-GHA,Brong Ahafo province,Ghana,7.9559247,-1.6760691
2020-0228-GHA,Greater Accra Region,Ghana,5.8142836,0.0746767
2016-0212-GHA,Kwame Nkrumah Circle,Ghana,5.5560681,-0.2119593
2002-0215-GHA,Accra Metropolis district,Ghana,5.5459415,-0.2103988
2002-0373-GHA,Accra Metropolis district,Ghana,5.5459415,-0.2103988
2020-0399-GHA,Bagre Dam in West Mamprusi Municipality,Ghana,10.3487285,-0.82940019999999992
2017-0383-HTI,Limbe,Haiti,19.7025729,-72.405101399999992
2010-0092-HTI,Nippes,Haiti,18.3990735,-73.4180211
2012-0237-HTI,Nippes,Haiti,18.3990735,-73.4180211
2016-0185-HTI,Leogane,Haiti,18.5119291,-72.6334813
2008-0352-HTI,Sud Est,Haiti,18.3124354,-72.4731529
2021-0373-HTI,Sud-Est,Haiti,18.3124354,-72.4731529
2008-0378-HTI,Gonaives,Haiti,19.4511496,-72.6801576
2016-0184-HTI,Baradère,Haiti,18.4826592,-73.638773399999991
2004-0473-HTI,Artibonite,Haiti,19.362902,-72.4258145
2012-0596-HTI,Artibonite,Haiti,19.362902,-72.4258145
2013-0213-HTI,Artibonite,Haiti,19.362902,-72.4258145
2005-0597-HTI,Dame Marie,Haiti,18.5614891,-74.4195864
2017-0209-HTI,Grand-Anse,Haiti,18.4647143,-74.1709702
2021-0184-HTI,Jean-Rabel,Haiti,19.8535692,-73.192486399999993
2016-0053-HTI,Cap-Haitien,Haiti,19.7370362,-72.206768099999991
2015-0116-HTI,Cite Soleil,Haiti,18.5784905,-72.3355529
2001-0611-HTI,Grande Anse,Haiti,18.4647143,-74.1709702
2002-0657-HTI,Grande Anse,Haiti,18.4647143,-74.1709702
2006-0651-HTI,Grande Anse,Haiti,18.4647143,-74.1709702
2007-0496-HTI,Grande Anse,Haiti,18.4647143,-74.1709702
2008-0338-HTI,Grande Anse,Haiti,18.4647143,-74.1709702
2012-0313-HTI,Grande-Anse,Haiti,18.4647143,-74.1709702
2016-0355-HTI,Grand’Anse,Haiti,18.4647143,-74.1709702
2019-0445-HTI,Petite Goave,Haiti,18.4311407,-72.8545019
2017-0452-HTI,Port-de-Paix,Haiti,19.9348887,-72.8308692
2018-0360-HTI,Port-de-Paix,Haiti,19.9348887,-72.8308692
2011-0303-HTI,Sud province,Haiti,18.3320005,-73.7007088
2000-0722-HTI,Bahon village,Haiti,19.4702607,-72.1156953
2011-0328-HTI,Nord province,Haiti,19.5687715,-72.189
2014-0453-HTI,Nord province,Haiti,19.5687715,-72.189
2010-0542-HTI,Port-au-Prince,Haiti,18.594395,-72.3074326
2010-0571-HTI,Port-au-Prince,Haiti,18.594395,-72.3074326
2010-0017-HTI,Port-au-prince,Haiti,18.594395,-72.3074326
2002-0321-HTI,L'Asile village,Haiti,18.374889,-73.424606
2000-0797-HTI,Abricots village,Haiti,18.6500708,-74.3066879
2015-0375-HTI,Ganthier village,Haiti,18.5323585,-72.0660745
2017-0137-HTI,South department,Haiti,18.3320005,-73.7007088
2008-0384-HTI,Gonaives district,Haiti,19.4511496,-72.6801576
2022-0057-HTI,Nippes Department,Haiti,18.3990735,-73.4180211
2016-0165-HTI,Bombardopolis city,Haiti,19.6775885,-73.326655899999992
2001-0207-HTI,Artibonite province,Haiti,19.362902,-72.4258145
2016-0126-HTI,Port-au-Prince city,Haiti,18.594395,-72.3074326
2007-0167-HTI,Saint Louis Du Nord,Haiti,19.9276075,-72.7141496
2003-0439-HTI,Saint-Marc district,Haiti,19.104927,-72.694937299999992
2005-0378-HTI,Saint-Marc district,Haiti,19.104927,-72.694937299999992
2005-0382-HTI,Saint-Marc district,Haiti,19.104927,-72.694937299999992
2006-0716-HTI,Saint-Marc district,Haiti,19.104927,-72.694937299999992
2003-0624-HTI,Cap Haitien district,Haiti,19.7370362,-72.206768099999991
2003-0759-HTI,Cap Haitien district,Haiti,19.7370362,-72.206768099999991
2010-0067-HTI,Cap Haitien district,Haiti,19.7370362,-72.206768099999991
2016-0418-HTI,Cap Haitien district,Haiti,19.7370362,-72.206768099999991
2004-0462-HTI,Cap-Haitien district,Haiti,19.7370362,-72.206768099999991
2024-0278-HTI,Cap-Haïtien commune,Haiti,19.7370362,-72.206768099999991
2005-0733-HTI,Côtes-de-Fer village,Haiti,18.18877,-73.00289149999999
2023-0763-HTI,Grand'Anse Department,Haiti,18.4647143,-74.1709702
2022-0130-HTI,Limbé Arrondissement,Haiti,19.7025729,-72.405101399999992
2004-0231-HTI,Fonds Verrettes village,Haiti,18.39716,-71.852685999999991
2003-0495-HTI,Port-au-Prince district,Haiti,18.594395,-72.3074326
2007-0281-HTI,Port-au-Prince district,Haiti,18.594395,-72.3074326
2007-0523-HTI,Port-au-Prince district,Haiti,18.594395,-72.3074326
2010-0508-HTI,Port-au-Prince district,Haiti,18.594395,-72.3074326
2010-0373-IND,Leh,India,34.1525864,77.577053499999991
2014-0106-IND,Doda,India,33.1457497,75.5480491
2009-0483-IND,Ooty,India,11.4102038,76.6950324
2021-0435-IND,Pune,India,18.5204303,73.8567437
2011-0371-IND,Angul,India,20.8444033,85.1510818
2012-0179-IND,Anjaw,India,28.0359962,96.835099899999989
2003-0283-IND,Assam,India,26.2006043,92.9375739
2006-0262-IND,Assam,India,26.2006043,92.9375739
2007-0602-IND,Assam,India,26.2006043,92.9375739
2008-0285-IND,Assam,India,26.2006043,92.9375739
2018-0205-IND,Assam,India,26.2006043,92.9375739
2020-0304-IND,Assam,India,26.2006043,92.9375739
2000-0020-IND,Bihar,India,25.9644427,85.2722472
2002-0818-IND,Bihar,India,25.9644427,85.2722472
2007-0320-IND,Bihar,India,25.9644427,85.2722472
2009-0240-IND,Bihar,India,25.9644427,85.2722472
2009-0409-IND,Bihar,India,25.9644427,85.2722472
2010-0171-IND,Bihar,India,25.9644427,85.2722472
2010-0428-IND,Bihar,India,25.9644427,85.2722472
2012-0538-IND,Bihar,India,25.9644427,85.2722472
2013-0482-IND,Bihar,India,25.9644427,85.2722472
2015-0144-IND,Bihar,India,25.9644427,85.2722472
2016-0237-IND,Bihar,India,25.9644427,85.2722472
2021-0316-IND,Bihar,India,25.9644427,85.2722472
2010-0206-IND,Delhi,India,28.7040592,77.102490199999991
2015-0189-IND,Delhi,India,28.7040592,77.102490199999991
2011-0428-IND,Gonda,India,27.1339874,81.961897900000011
2017-0569-IND,Jamui,India,24.9255887,86.2258592
2023-0359-IND,Mandi,India,31.7087153,76.9320104
2024-0561-IND,Mandi,India,31.7087153,76.9320104
2015-0253-IND,Mirik,India,26.8852968,88.1827931
2019-0217-IND,Patna,India,25.5940947,85.1375645
2009-0204-IND,Sagar,India,23.838805,78.7378068
2005-0627-IND,Salem,India,11.664325,78.1460142
2001-0527-IND,Saran,India,25.7765249,84.7380858
2001-0794-IND,Saran,India,25.7765249,84.7380858
2005-0335-IND,Surat,India,21.1702401,72.831060700000009
2005-0603-IND,Surat,India,21.1702401,72.831060700000009
2024-0320-IND,Aizawl,India,23.7307175,92.71731059999999
2010-0492-IND,Almora,India,29.5892407,79.646666
2010-0276-IND,Ambala,India,30.3752011,76.782122
2015-0249-IND,Amreli,India,21.6015242,71.2203555
2017-0342-IND,Araria,India,26.1324689,87.4528067
2006-0342-IND,Ballia,India,28.2006882,79.3651914
2006-0469-IND,Barmer,India,25.7521467,71.3966865
2023-0331-IND,Barmer,India,25.7521467,71.3966865
2013-0345-IND,Bhopal,India,23.2599333,77.412615
2016-0276-IND,Bhopal,India,23.2599333,77.412615
2021-0419-IND,Bombay,India,19.0759837,72.8776559
2017-0495-IND,Chenai,India,13.0843007,80.2704622
2005-0354-IND,Digras,India,20.1068912,77.7125184
2005-0290-IND,Guntur,India,16.3066525,80.4365402
2001-0387-IND,Idukki,India,9.9188973,77.102490199999991
2021-0677-IND,Idukki,India,9.9188973,77.102490199999991
2012-0322-IND,Jaipur,India,26.9124336,75.7872709
2016-0554-IND,Jorhat,India,26.7509207,94.2036696
2002-0650-IND,Kannur,India,11.8744775,75.370366199999992
2017-0508-IND,Kerala,India,10.1631526,76.641271199999991
2021-0252-IND,Kerala,India,10.1631526,76.641271199999991
2003-0387-IND,Khavda,India,23.8442908,69.7316714
2023-0606-IND,Khurda,India,20.1862584,85.622274199999993
2017-0570-IND,Maldah,India,25.0557268,88.1364591
2017-0364-IND,Mumbai,India,19.0759837,72.8776559
2019-0288-IND,Mumbai,India,19.0759837,72.8776559
2019-0311-IND,Odisha,India,20.2375561,84.2700179
2006-0712-IND,Orissa,India,20.2375561,84.2700179
2008-0423-IND,Orissa,India,20.2375561,84.2700179
2009-0175-IND,Orissa,India,20.2375561,84.2700179
2013-0400-IND,Orissa,India,20.2375561,84.2700179
2013-0401-IND,Orissa,India,20.2375561,84.2700179
2010-0493-IND,Punjab,India,31.1471305,75.34121789999999
2018-0372-IND,Punjab,India,31.1471305,75.34121789999999
2015-0164-IND,Purnia,India,25.7771391,87.4752551
2020-0217-IND,Raigad,India,18.2376278,73.4445392
2007-0240-IND,Raipur,India,21.2513844,81.629641300000017
2021-0585-IND,Rajkot,India,22.3038945,70.802159899999992
2005-0361-IND,Sangla,India,31.4254859,78.264995599999992
2011-0351-IND,Sikkim,India,27.3516407,88.323930900000008
2003-0134-IND,Bankura,India,23.2312686,87.078387499999991
2002-0374-IND,Barpeta,India,26.3304209,91.0040547
2011-0424-IND,Barpeta,India,26.3304209,91.0040547
2012-0382-IND,Barpeta,India,26.3304209,91.0040547
2015-0226-IND,Barpeta,India,26.3304209,91.0040547
2009-0429-IND,Belgaum,India,15.8496953,74.4976741
2000-0610-IND,Birbhum,India,24.3587525,87.8402888
2016-0239-IND,Chamoli,India,30.4554245,79.874483599999991
2002-0729-IND,Chennai,India,13.0843007,80.2704622
2010-0629-IND,Chennai,India,13.0843007,80.2704622
2003-0683-IND,Cuttack,India,20.462521,85.8829895
2007-0596-IND,Cuttack,India,20.462521,85.8829895
2015-0450-IND,Deogarh,India,21.5383136,84.7289442
2013-0282-IND,Dhemaji,India,27.4720412,94.5587757
2015-0406-IND,Dhemaji,India,27.4720412,94.5587757
2001-0729-IND,Gujarat,India,22.6708317,71.5723953
2005-0409-IND,Gujarat,India,22.6708317,71.5723953
2009-0609-IND,Gujarat,India,22.6708317,71.5723953
2015-0126-IND,Gujarat,India,22.6708317,71.5723953
2017-0257-IND,Gujarat,India,22.6708317,71.5723953
2019-0155-IND,Gujarat,India,22.6708317,71.5723953
2015-0317-IND,Kachchh,India,23.7337326,69.8597406
2000-0445-IND,Katihar,India,25.5540648,87.5591073
2008-0415-IND,Khammam,India,17.2472528,80.1514447
2023-0161-IND,Khandwa,India,21.8314037,76.3497612
2018-0138-IND,Kolkata,India,22.5743545,88.3628734
2017-0483-IND,Kotropi,India,31.9121384,76.8879496
2007-0250-IND,Kurnool,India,15.8281257,78.0372792
2007-0469-IND,Kurnool,India,15.8281257,78.0372792
2018-0385-IND,Mandasa,India,18.8699722,84.4614237
2017-0152-IND,Manipur,India,24.6637173,93.906268799999992
2023-0294-IND,Mizoram,India,23.164543,92.9375739
2023-0330-IND,Nalbari,India,26.4446185,91.4410527
2006-0369-IND,Navsari,India,20.9467019,72.952034799999993
2007-0311-IND,Udaipur,India,24.585445,73.712479
2024-0149-IND,Unakoti,India,24.1780881,92.027318999999991
2004-0321-IND,Wayanad,India,11.703206,76.0833999
2000-0534-IND,Adilabad,India,19.6765668,78.532084099999992
2005-0399-IND,Adilabad,India,19.6765668,78.532084099999992
2006-0207-IND,Adilabad,India,19.6765668,78.532084099999992
2013-0208-IND,Adilabad,India,19.6765668,78.532084099999992
2007-0239-IND,Amravati,India,20.9319821,77.7523039
2020-0211-IND,Balasore,India,21.4933578,86.9134794
2019-0499-IND,Belagavi,India,15.8496953,74.4976741
2015-0504-IND,Chittoor,India,13.217176,79.1003289
2021-0748-IND,Chittoor,India,13.217176,79.1003289
2006-0370-IND,Gajapati,India,19.1912221,84.1857115
2008-0246-IND,Lakhimpu,India,27.9462395,80.7787163
2021-0681-IND,Nainital,India,29.3924139,79.4533773
2015-0413-IND,Sonitpur,India,26.6769864,92.6983868
2018-0295-IND,Thrissur,India,10.5276416,76.2144349
2017-0265-IND,Vaishali,India,25.6838206,85.354964999999993
2001-0033-IND,Ahmadabad,India,23.022505,72.5713621
2002-0702-IND,Baleshwar,India,21.4933578,86.9134794
2007-0467-IND,Baleshwar,India,21.4933578,86.9134794
2006-0549-IND,Balrampur,India,27.4307473,82.1805203
2024-0280-IND,Bishnupur,India,23.067179,87.32146809999999
2018-0345-IND,Biswanath,India,26.8517875,93.338891699999991
2004-0298-IND,Darbhanga,India,26.1542045,85.8918454
2009-0638-IND,Darbhanga,India,26.1542045,85.8918454
2001-0515-IND,Gopalganj,India,26.4605776,84.44024619999999
2020-0446-IND,Hyderabad,India,17.406498,78.477243899999991
2005-0504-IND,Karnataka,India,15.3172775,75.7138884
2018-9372-IND,Karnataka,India,15.3172775,75.7138884
2019-0223-IND,Karnataka,India,15.3172775,75.7138884
2007-0225-IND,Lakhimpur,India,27.9462395,80.7787163
2008-0615-IND,Lakhimpur,India,27.9462395,80.7787163
2016-0267-IND,Lakhimpur,India,27.9462395,80.7787163
2017-0180-IND,Lakhimpur,India,27.9462395,80.7787163
2017-0289-IND,Lakhimpur,India,27.9462395,80.7787163
2020-0206-IND,Lakhimpur,India,27.9462395,80.7787163
2000-0358-IND,Moradabad,India,28.8386481,78.7733286
2010-0694-IND,Mushalpur,India,26.6593594,91.3408979
2018-0049-IND,New Delhi,India,28.6139298,77.2088282
2007-0683-IND,Rajasthan,India,27.0238036,74.217932600000012
2015-0333-IND,Rajasthan,India,27.0238036,74.217932600000012
2018-0150-IND,Rajasthan,India,27.0238036,74.217932600000012
2014-0408-IND,Shravasti,India,27.5035427,82.036461
2019-0331-IND,Sitamarhi,India,26.5886976,85.5012971
2017-0046-IND,Sonamanrg,India,34.3031616,75.293111
2013-0260-IND,Sultanpur,India,26.2585371,82.065985799999993
2000-0332-IND,Yingkiang,India,28.6235847,95.0364522
2005-0398-IND,Ashoknagar,India,24.5775148,77.7318495
2001-0465-IND,Aurangabad,India,19.8761653,75.3433139
2005-0191-IND,Barddhaman,India,23.2324214,87.8614793
2009-9323-IND,Bongaigaon,India,26.5030072,90.5535724
2021-0366-IND,Bongaigaon,India,26.5030072,90.5535724
2019-0574-IND,Coimbatore,India,11.0168445,76.9558321
2000-0444-IND,East Siang,India,28.0550482,95.35208759999999
2012-0015-IND,Karimnagar,India,18.4385553,79.1288412
2003-0234-IND,Mekhliganj,India,26.3473882,88.9102489
2024-0481-IND,Pratapgarh,India,25.8973038,81.9452981
2021-0630-IND,Srikakulam,India,18.2949165,83.893801799999991
2006-0601-IND,Tamil Nadu,India,11.1271225,78.6568942
2008-0130-IND,Tamil Nadu,India,11.1271225,78.6568942
2015-9618-IND,Tamil Nadu,India,11.1271225,78.6568942
2018-0431-IND,Tamil Nadu,India,11.1271225,78.6568942
2021-0722-IND,Tamil Nadu,India,11.1271225,78.6568942
2022-0798-IND,Tamil Nadu,India,11.1271225,78.6568942
2018-0119-IND,Tamil nadu,India,11.1271225,78.6568942
2022-0219-IND,Assam State,India,26.2006043,92.9375739
2017-0294-IND,Banaskantha,India,24.3070289,72.3514618
2017-0290-IND,Imphal West,India,24.7827837,93.88589549999999
2004-0178-IND,Leimapokpam,India,24.6987955,93.8609736
2006-0265-IND,Maharashtra,India,19.7514798,75.7138884
2016-0304-IND,Maharashtra,India,19.7514798,75.7138884
2008-0486-IND,Muzaffarpur,India,26.1196607,85.390982
2016-0234-IND,Muzaffarpur,India,26.1196607,85.390982
2000-0498-IND,Pithoragarh,India,29.5828604,80.2181884
2019-0550-IND,South Assam,India,26.2006043,92.9375739
2008-0560-IND,Thiruvallur,India,13.1230558,79.9119526
2023-0846-IND,Thoothukudi,India,8.7641660999999988,78.1348361
2004-0734-IND,Uttarakhand,India,30.066753,79.019299699999991
2013-0192-IND,Uttarakhand,India,30.066753,79.019299699999991
2014-0268-IND,Uttarakhand,India,30.066753,79.019299699999991
2007-0556-IND,West Bengal,India,22.9867569,87.8549755
2019-0383-IND,West Bengal,India,22.9867569,87.8549755
2020-0249-IND,Jammu region,India,32.9338561,74.6868815
2004-0659-IND,Kancheepuram,India,12.8372508,79.7041749
2018-0286-IND,Odisha state,India,20.2375561,84.2700179
2005-0541-IND,Raj Nandgaon,India,21.0976046,81.0337066
2012-0354-IND,Rudra Prayag,India,30.2850407,78.982193999999993
2001-0243-IND,Silchar city,India,24.8332708,92.7789054
2014-0391-IND,Tura village,India,25.5140712,90.2032141
2023-0792-IND,Andra Pradesh,India,15.9128998,79.7399875
2023-0812-IND,Gujarat state,India,22.6708317,71.5723953
2005-0457-IND,Guwahati city,India,26.1157917,91.7085933
2016-0002-IND,Guwahati city,India,26.1157917,91.7085933
2014-0270-IND,Malin village,India,19.1613249,73.6884201
2023-0548-IND,Mizoram State,India,23.164543,92.9375739
2000-0785-IND,Nagappattinam,India,10.7672313,79.8448512
2009-0595-IND,Srinagar city,India,34.0836708,74.7972825
2022-0395-IND,Tapul village,India,20.593684,78.96288
2018-0213-IND,Tripura state,India,23.5638643,91.676069099999992
2001-0011-IND,Uttar Pradesh,India,27.5705886,80.0981869
2001-0681-IND,Uttar Pradesh,India,27.5705886,80.0981869
2002-9349-IND,Uttar Pradesh,India,27.5705886,80.0981869
2003-0636-IND,Uttar Pradesh,India,27.5705886,80.0981869
2004-0489-IND,Uttar Pradesh,India,27.5705886,80.0981869
2005-0323-IND,Uttar Pradesh,India,27.5705886,80.0981869
2005-0701-IND,Uttar Pradesh,India,27.5705886,80.0981869
2006-0237-IND,Uttar Pradesh,India,27.5705886,80.0981869
2006-0740-IND,Uttar Pradesh,India,27.5705886,80.0981869
2007-0207-IND,Uttar Pradesh,India,27.5705886,80.0981869
2007-0674-IND,Uttar Pradesh,India,27.5705886,80.0981869
2008-0616-IND,Uttar Pradesh,India,27.5705886,80.0981869
2010-0177-IND,Uttar Pradesh,India,27.5705886,80.0981869
2011-0643-IND,Uttar Pradesh,India,27.5705886,80.0981869
2011-0647-IND,Uttar Pradesh,India,27.5705886,80.0981869
2014-0047-IND,Uttar Pradesh,India,27.5705886,80.0981869
2017-0517-IND,Uttar Pradesh,India,27.5705886,80.0981869
2018-0137-IND,Uttar Pradesh,India,27.5705886,80.0981869
2018-0149-IND,Uttar Pradesh,India,27.5705886,80.0981869
2018-0199-IND,Uttar Pradesh,India,27.5705886,80.0981869
2018-0202-IND,Uttar Pradesh,India,27.5705886,80.0981869
2018-0209-IND,Uttar Pradesh,India,27.5705886,80.0981869
2018-0214-IND,Uttar Pradesh,India,27.5705886,80.0981869
2018-0267-IND,Uttar Pradesh,India,27.5705886,80.0981869
2018-0370-IND,Uttar Pradesh,India,27.5705886,80.0981869
2019-0321-IND,Uttar Pradesh,India,27.5705886,80.0981869
2022-0590-IND,Uttar Pradesh,India,27.5705886,80.0981869
2023-0328-IND,Uttar Pradesh,India,27.5705886,80.0981869
2003-0250-IND,Andhra Pradesh,India,15.9128998,79.7399875
2005-0537-IND,Andhra Pradesh,India,15.9128998,79.7399875
2006-0417-IND,Andhra Pradesh,India,15.9128998,79.7399875
2006-0510-IND,Andhra Pradesh,India,15.9128998,79.7399875
2007-0524-IND,Andhra Pradesh,India,15.9128998,79.7399875
2012-0425-IND,Andhra Pradesh,India,15.9128998,79.7399875
2016-0133-IND,Andhra Pradesh,India,15.9128998,79.7399875
2017-0144-IND,Andhra Pradesh,India,15.9128998,79.7399875
2018-0473-IND,Andhra Pradesh,India,15.9128998,79.7399875
2021-0777-IND,Andhra Pradesh,India,15.9128998,79.7399875
2014-0218-IND,Assam province,India,26.2006043,92.9375739
2015-0374-IND,Assam province,India,26.2006043,92.9375739
2003-0089-IND,Betul district,India,21.9671753,77.7452081
2015-0175-IND,Bihar province,India,25.9644427,85.2722472
2001-0502-IND,Delhi province,India,28.7040592,77.102490199999991
2009-0303-IND,Delhi province,India,28.7040592,77.102490199999991
2010-0321-IND,Delhi province,India,28.7040592,77.102490199999991
2011-0007-IND,Delhi province,India,28.7040592,77.102490199999991
2005-0599-IND,East Midnapore,India,21.9372879,87.77633329999999
2003-0719-IND,Kullu district,India,31.8246483,77.4701972
2017-0266-IND,Laptap Village,India,27.21629,93.6343
2002-0290-IND,Madhya Pradesh,India,22.9734229,78.6568942
2006-0731-IND,Madhya Pradesh,India,22.9734229,78.6568942
2010-0688-IND,Nawabganj town,India,26.9268042,81.1833809
2000-9222-IND,New Delhi city,India,28.6139298,77.2088282
2003-0720-IND,Solang village,India,32.3230263,77.1564253
2014-0392-IND,Vishakhapatnam,India,17.6868159,83.2184815
2001-0618-IND,Amboori village,India,8.5041213,77.1916497
2001-0501-IND,Chamba district,India,32.7573487,76.178373900000011
2001-0349-IND,Hosdurg borough,India,12.3059296,75.094695
2020-0332-IND,Idukki district,India,9.9188973,77.102490199999991
2006-0263-IND,Kerala province,India,10.1631526,76.641271199999991
2007-0603-IND,Kerala province,India,10.1631526,76.641271199999991
2023-0486-IND,Mulugu District,India,18.2788168,80.365865
2014-0409-IND,Odisha province,India,20.2375561,84.2700179
2019-0164-IND,Odisha province,India,20.2375561,84.2700179
2002-0216-IND,Orissa province,India,20.2375561,84.2700179
2011-0473-IND,Orissa province,India,20.2375561,84.2700179
2014-0313-IND,Orissa province,India,20.2375561,84.2700179
2012-0334-IND,Palchan village,India,32.309919,77.177992500000016
2002-0568-IND,Bharuch district,India,21.7969091,72.8042797
2015-0107-IND,Chadoora village,India,33.9451416,74.7966079
2021-0234-IND,Chamoli District,India,30.2937439,79.560344
2016-0485-IND,Chennai district,India,13.0843007,80.2704622
2011-0422-IND,Dhemaji district,India,27.608731,94.7691586
2003-0100-IND,Gujarat province,India,22.6708317,71.5723953
2006-0443-IND,Gujarat province,India,22.6708317,71.5723953
2007-0415-IND,Gujarat province,India,22.6708317,71.5723953
2005-0539-IND,Himachal Pradesh,India,32.1024076,77.5619419
2005-0746-IND,Himachal Pradesh,India,32.1024076,77.5619419
2014-0523-IND,Himachal Pradesh,India,32.1024076,77.5619419
2021-0458-IND,Himachal Pradesh,India,32.1024076,77.5619419
2022-0539-IND,Himachal Pradesh,India,32.1024076,77.5619419
2023-0428-IND,Himachal Pradesh,India,32.1024076,77.5619419
2022-0293-IND,Itanagar distrci,India,27.0843682,93.6053163
2005-0291-IND,Kolkata district,India,22.5743499,88.362876700000015
2015-0118-IND,Tripura province,India,23.5638643,91.676069099999992
2016-0139-IND,Arunachal Pradesh,India,28.2179994,94.7277528
2005-0471-IND,Azamgarh district,India,26.0647043,83.0790865
2002-0539-IND,Balaghat district,India,21.8603434,80.365865
2000-0415-IND,Ghatkopar village,India,19.0790239,72.9080122
2004-0509-IND,Goalpara district,India,26.0872614,90.6393702
2003-0099-IND,Jammu and Kashmir,India,33.277839,75.34121789999999
2016-0049-IND,Jammu and Kashmir,India,33.277839,75.34121789999999
2007-0238-IND,Junagadh district,India,21.355069,70.526493399999993
2021-0225-IND,Kamrup and Nagaon,India,26.348009,92.6838111
2022-0248-IND,Maharashtra State,India,19.7514798,75.7138884
2023-0234-IND,Maharashtra state,India,19.7514798,75.7138884
2021-0072-IND,Uttarakhand state,India,30.066753,79.019299699999991
2005-0375-IND,Yingkiong village,India,28.6235847,95.0364522
2021-0295-IND,Bengale occidental,India,22.9867569,87.8549755
2011-0566-IND,Cuddalore district,India,11.611254,79.6502105
2014-0182-IND,Ghaziabad district,India,28.7891841,77.5160788
2014-0551-IND,Hyderabad district,India,17.406504,78.4772486
2011-0593-IND,Karnataka province,India,15.3172775,75.7138884
2010-0416-IND,Lakhimpur district,India,27.2063587,94.15137639999999
2021-0500-IND,Nigul Sari Village,India,31.5546785,77.881030799999991
2009-0130-IND,Kendrapara district,India,20.5848321,86.6611083
2005-0314-IND,Mokokchung district,India,26.4896327,94.5211935
2005-0677-IND,Tamil Nadu province,India,10.7330553,78.634541599999991
2020-0198-IND,Uttar Pradesh State,India,27.5705886,80.0981869
2015-0604-IND,Maharashtra province,India,19.7514798,75.7138884
2024-0246-IND,New Delhi; Rajasthan,India,28.6139298,77.2088282
2009-0315-IND,Pithoragarh district,India,30.0815485,80.365865
2023-0622-IND,Sikkim state Gangtok,India,27.3313512,88.6138113
2016-0187-IND,Uttarakhand province,India,30.066753,79.019299699999991
2016-0195-IND,Uttarakhand province,India,30.066753,79.019299699999991
2002-0204-IND,West Bengal province,India,22.9867569,87.8549755
2011-0327-IND,West Bengal province,India,22.9867569,87.8549755
2009-0443-IND,Jainta Hills district,India,25.5488415,92.38136209999999
2020-0057-IND,Jammu & Kashmir state,India,33.277839,75.34121789999999
2001-0414-IND,Rudra Prayag district,India,30.4807165,79.06450559999999
2021-0645-IND,Koraput and Malkangiri,India,18.3435863,81.882527900000014
2014-0520-IND,Muzaffarnagar district,India,29.5056848,77.8367282
2002-0490-IND,Tehri Garhwal district,India,30.3011858,78.5660852
2001-0337-IND,Uttar Pradesh province,India,27.5705886,80.0981869
2003-0775-IND,Uttar Pradesh province,India,27.5705886,80.0981869
2008-0646-IND,Uttar Pradesh province,India,27.5705886,80.0981869
2009-0640-IND,Uttar Pradesh province,India,27.5705886,80.0981869
2009-0641-IND,Uttar Pradesh province,India,27.5705886,80.0981869
2011-0176-IND,Uttar Pradesh province,India,27.5705886,80.0981869
2013-0090-IND,Uttar Pradesh province,India,27.5705886,80.0981869
2014-0538-IND,Uttar Pradesh province,India,27.5705886,80.0981869
2000-0323-IND,Andhra Pradesh province,India,15.9128998,79.7399875
2001-0584-IND,Andhra Pradesh province,India,15.9128998,79.7399875
2010-0283-IND,Andhra Pradesh province,India,15.9128998,79.7399875
2010-0693-IND,Andhra Pradesh province,India,15.9128998,79.7399875
2013-0138-IND,Andhra Pradesh province,India,15.9128998,79.7399875
2015-0600-IND,Andhra Pradesh province,India,15.9128998,79.7399875
2016-0391-IND,Andhra Pradesh province,India,15.9128998,79.7399875
2006-0734-IND,Madhya Pradesh province,India,22.9734229,78.6568942
2002-0584-IND,Andaman Islands district,India,7.1205395,93.7841503
2007-0364-IND,Himachal Pradesh province,India,32.1024076,77.5619419
2012-0584-IND,Himachel Pradesh province,India,32.1024076,77.5619419
2020-0524-IND,Tamil Nadu and Puducherry,India,11.9415915,79.8083133
2024-0399-IND,Assam and Meghalaya states,India,25.4670308,91.366216
2007-0687-IND,Jammu and Kashmir province,India,33.277839,75.34121789999999
2000-0738-IND,North 24 Parganas district,India,22.710047,88.7108964
2006-0389-IND,Jammu and Kashmir provinces,India,33.277839,75.34121789999999
2006-0548-IND,Jammu and Kashmir provinces,India,33.277839,75.34121789999999
2014-0343-IND,Jammu and Kashmir provinces,India,33.277839,75.34121789999999
2018-0216-IND,Dakshina Kannada and Udupi districts,India,13.5401195,74.8741045
2023-0547-IND,Himachal Pradesh and Uttarakhand states,India,32.1024076,77.5619419
2013-0441-ITA,Olbia,Italy,40.9236401,9.4964224
2023-0724-ITA,Prato,Italy,43.8777049,11.102228
2016-0357-ITA,Visso,Italy,42.9311282,13.0864724
2022-0609-ITA,Ancona,Italy,43.6071395,13.5101741
2016-0358-ITA,Norcia,Italy,42.791923,13.0947797
2023-0458-ITA,Padoue,Italy,45.4105029,11.8782071
2023-9234-ITA,Sicile,Italy,37.3979297,14.6587821
2020-0051-ITA,Traona,Italy,46.1485923,9.5228448
2020-0533-ITA,Varese,Italy,45.8182892,8.8252083
2010-0692-ITA,Veneto,Italy,45.762333299999987,11.690976
2001-0386-ITA,Abruzzi,Italy,42.1920119,13.7289167
2007-0294-ITA,Abruzzi,Italy,42.1920119,13.7289167
2012-9290-ITA,Abruzzi,Italy,42.1920119,13.7289167
2023-0293-ITA,Bologna,Italy,44.494887,11.3426163
2023-0466-ITA,Brescia,Italy,45.5415526,10.2118019
2018-0308-ITA,Cosenza,Italy,39.3071324,16.2474125
2019-0533-ITA,Liguria,Italy,44.419658,8.5281612999999989
2024-0129-ITA,Liguria,Italy,44.419658,8.5281612999999989
2003-0043-ITA,Pescara,Italy,42.4617624,14.2160321
2002-9298-ITA,Sicilia,Italy,37.3979297,14.6587821
2016-0313-ITA,Amatrice,Italy,42.628002599999988,13.2924449
2017-0015-ITA,Avezzano,Italy,42.0278194,13.424805
2020-0521-ITA,Cagliari,Italy,39.2237323,9.1217194
2007-0235-ITA,Calabria,Italy,39.3087714,16.3463791
2017-9296-ITA,Calabria,Italy,39.3087714,16.3463791
2017-0408-ITA,Livourne,Italy,43.548476,10.3106087
2021-0434-ITA,Oristano,Italy,39.9061169,8.5883687
2016-0453-ITA,Piémont,Italy,45.0522366,7.5153885
2014-0045-ITA,Ponsacco,Italy,43.6207236,10.630722
2009-0271-ITA,Sardegna,Italy,40.1208752,9.0128925999999989
2018-0461-ITA,Acicatena,Italy,37.606423,15.1421115
2014-0026-ITA,Bastiglia,Italy,44.7270183,10.9995095
2010-0615-ITA,Lombardia,Italy,45.479067099999988,9.8452433
2023-0438-ITA,Sardaigne,Italy,40.1208752,9.0128925999999989
2021-0411-ITA,Lake Garda,Italy,45.6049385,10.6351414
2008-0216-ITA,Savigliano,Italy,44.6481313,7.6539457
2014-0252-ITA,Senigallia,Italy,43.7197926,13.2152224
2009-0428-ITA,Giampilieri,Italy,38.06885,15.4694894
2006-0219-ITA,Ischia town,Italy,40.7378738,13.9485287
2011-0416-ITA,Cinque Terre,Italy,44.1460939,9.6438793
2000-0632-ITA,Lodrone city,Italy,45.8295268,10.5370882
2012-0142-ITA,Finale Emilia,Italy,44.8322384,11.2912432
2019-0296-ITA,Marche Region,Italy,43.462735,13.3587288
2012-0466-ITA,Massa-carrara,Italy,44.2213998,10.0359661
2011-0495-ITA,Saponara town,Italy,38.1940991,15.4338444
2000-0577-ITA,Soverato town,Italy,38.684733400000013,16.5516957
2019-0543-ITA,Albano Laziale,Italy,41.728754,12.6586229
2017-0544-ITA,Emilia Romagna,Italy,44.5967607,11.2186396
2005-0713-ITA,Emilia-romagna,Italy,44.5967607,11.2186396
2011-0436-ITA,Genova district,Italy,44.4071448,8.9347380999999988
2014-0448-ITA,Genova district,Italy,44.4071448,8.9347380999999988
2011-0329-ITA,Milano district,Italy,45.466926099999988,9.2085425
2012-0019-ITA,Milano district,Italy,45.466926099999988,9.2085425
2015-0081-ITA,Milano district,Italy,45.466926099999988,9.2085425
2012-0162-ITA,Modena Province,Italy,44.5513799,10.918048
2014-0458-ITA,Moscazzano town,Italy,45.2936699,9.6801514000000015
2015-0532-ITA,Reggio Calabria,Italy,38.1109851,15.6478516
2009-0571-ITA,Veneto province,Italy,45.762333299999987,11.690976
2002-0680-ITA,Zafferana Etnea,Italy,37.6917721,15.1041151
2022-9405-ITA,Émilie-Romagne,Italy,44.5967607,11.2186396
2002-0472-ITA,Brescia district,Italy,45.5415526,10.2118019
2004-0568-ITA,Lampedusa Island,Italy,35.5086218,12.59292
2002-0882-ITA,Palermo Province,Italy,37.7946947,13.4511768
2009-0014-ITA,Salerno district,Italy,40.6813313,14.7743583
2010-0582-ITA,Salerno district,Italy,40.6813313,14.7743583
2003-0433-ITA,Ugovizza village,Italy,46.511173199999988,13.4735946
2001-0016-ITA,Venezia district,Italy,45.440379,12.3159547
2015-0598-ITA,Corigiano Calabro,Italy,39.5942976,16.5202817
2015-0465-ITA,L'Aquila district,Italy,42.350697,13.399934
2017-0349-ITA,Casamicciola Terme,Italy,40.7491439,13.9104975
2000-0752-ITA,Lombardoa province,Italy,45.479067099999988,9.8452433
2022-0401-ITA,Marmolada mountain,Italy,46.4345444,11.8499377
2000-0671-ITA,San Rocco al Porto,Italy,45.0814396,9.7003734
2020-0365-ITA,Chiareggio Locality,Italy,46.3160918,9.7871636999999989
2003-0184-ITA,Alessandria Province,Italy,44.8175587,8.7046627
2001-0378-ITA,Nicolosi municipality,Italy,37.6174474,15.0241888
2023-0270-ITA,Fontanelice Municipality,Italy,44.2579249,11.5576867
2022-0775-ITA,Casamicciola municipality,Italy,40.7491439,13.9104975
2002-0690-ITA,San Guliano di Puglia town,Italy,41.6865184,14.9634003
2019-0195-ITA,San Martino di Villafranca,Italy,44.2766329,12.0072189
2002-0740-ITA,Trentino-alto Adige province,Italy,46.4336662,11.1693296
2006-0124-ITA,Trentino-alto Adige province,Italy,46.4336662,11.1693296
2020-0540-ITA,Crotone and Cosenza provinces,Italy,39.5644105,16.2522143
2002-0343-ITA,Frioul-venezia Giulia province,Italy,46.2259177,13.1033646
2020-0418-ITA,Liguria and Piemonte Regions of Italy,Italy,44.419658,8.5281612999999989
2022-0525-ITA,Stromboli Isl.; Calabia; Sardinia; Tuscany,Italy,44.2202953,10.0368402
2018-0397-ITA,Liguria and Lazio municipalities; Trento Province,Italy,46.0512004,11.1175392
2000-0576-JPN,Aiti,Japan,35.0182505,137.2923893
2000-0606-JPN,Aiti,Japan,35.0182505,137.2923893
2006-0742-JPN,Aiti,Japan,35.0182505,137.2923893
2007-0358-JPN,Aiti,Japan,35.0182505,137.2923893
2010-0331-JPN,Aiti,Japan,35.0182505,137.2923893
2011-0352-JPN,Aiti,Japan,35.0182505,137.2923893
2011-0573-JPN,Aiti,Japan,35.0182505,137.2923893
2013-0415-JPN,Aiti,Japan,35.0182505,137.2923893
2014-0061-JPN,Aiti,Japan,35.0182505,137.2923893
2014-0578-JPN,Aiti,Japan,35.0182505,137.2923893
2015-0261-JPN,Aiti,Japan,35.0182505,137.2923893
2010-0311-JPN,Gifu,Japan,35.423422599999988,136.7606217
2024-0001-JPN,Noto,Japan,37.307967,137.1490082
2017-0468-JPN,Oita,Japan,33.2396084,131.6095148
2021-0372-JPN,Atami,Japan,35.0963896,139.071784
2019-0516-JPN,Chiba,Japan,35.6074041,140.1065366
2007-0319-JPN,Ehime,Japan,33.6025306,132.7857583
2013-0316-JPN,Ehime,Japan,33.6025306,132.7857583
2014-0236-JPN,Ehime,Japan,33.6025306,132.7857583
2014-0316-JPN,Ehime,Japan,33.6025306,132.7857583
2022-0423-JPN,Gunma,Japan,36.5605388,138.8799972
2018-0183-JPN,Hyogo,Japan,34.6833357,135.1634864
2003-0249-JPN,Iwate,Japan,39.9726552,141.2124895
2007-0457-JPN,Iwate,Japan,39.9726552,141.2124895
2016-0324-JPN,Iwate,Japan,39.9726552,141.2124895
2018-0190-JPN,Kochi,Japan,33.5588821,133.5312383
2007-0101-JPN,Nanao,Japan,37.043848300000008,136.9641261
2018-0326-JPN,Osaka,Japan,34.6937249,135.5022535
2018-0353-JPN,Tokyo,Japan,35.6764225,139.650027
2019-0492-JPN,Tokyo,Japan,35.6764225,139.650027
2022-0398-JPN,Unzen,Japan,32.8352046,130.1874427
2022-0496-JPN,Aomori,Japan,40.8222197,140.7473524
2009-0316-JPN,Hyoogo,Japan,34.6833357,135.1634864
2004-0428-JPN,Kagawa,Japan,34.2225915,134.0199152
2005-0464-JPN,Nagano,Japan,36.6485258,138.1950371
2019-0424-JPN,Nagano,Japan,36.6485258,138.1950371
2004-0445-JPN,Oosaka,Japan,34.6937249,135.5022535
2017-0246-JPN,Fukuoka,Japan,33.5901838,130.4016888
2019-0409-JPN,Fukuoka,Japan,33.5901838,130.4016888
2001-0476-JPN,Hukuoka,Japan,33.5901838,130.4016888
2004-0459-JPN,Hukuoka,Japan,33.5901838,130.4016888
2005-0211-JPN,Hukuoka,Japan,33.5901838,130.4016888
2004-0524-JPN,Ibaraki,Japan,36.2193571,140.1832516
2014-0068-JPN,Ibaraki,Japan,36.2193571,140.1832516
2015-0456-JPN,Ibaraki,Japan,36.2193571,140.1832516
2004-0339-JPN,Niigata,Japan,37.9161244,139.0363708
2005-0723-JPN,Niigata,Japan,37.9161244,139.0363708
2022-0819-JPN,Niigata,Japan,37.9161244,139.0363708
2004-0492-JPN,Niihama,Japan,33.9602876,133.2833918
2002-0430-JPN,Okinawa,Japan,26.3343533,127.8056058
2005-0497-JPN,Okinawa,Japan,26.3343533,127.8056058
2007-0262-JPN,Okinawa,Japan,26.3343533,127.8056058
2012-0414-JPN,Okinawa,Japan,26.3343533,127.8056058
2012-0451-JPN,Okinawa,Japan,26.3343533,127.8056058
2014-0397-JPN,Okinawa,Japan,26.3343533,127.8056058
2019-0443-JPN,Okinawa,Japan,26.3343533,127.8056058
2023-0300-JPN,Okinawa,Japan,26.3343533,127.8056058
2023-0490-JPN,Okinawa,Japan,26.3343533,127.8056058
2001-0123-JPN,Hirosima,Japan,34.3852894,132.4553055
2021-0018-JPN,Hokuriku,Japan,37.9154313,139.0356429
2023-0279-JPN,Ishikawa,Japan,36.3260317,136.5289653
2022-0627-JPN,Kakegawa,Japan,34.768823,137.9984128
2024-0060-JPN,Kanagawa,Japan,35.4827827,139.6146102
2018-0226-JPN,Kumagaya,Japan,36.1471963,139.3889796
2012-0195-JPN,Kumamoto,Japan,32.8032164,130.7079369
2016-0121-JPN,Kumamoto,Japan,32.8032164,130.7079369
2020-0555-JPN,Minakami,Japan,36.6786999,138.9990292
2006-0504-JPN,Nagasaki,Japan,32.7503334,129.8778888
2021-0508-JPN,Nagasaki,Japan,32.7503334,129.8778888
2011-0574-JPN,Tokusima,Japan,34.0703652,134.5549537
2011-0454-JPN,Wakayama,Japan,34.2303678,135.1707405
2019-0322-JPN,Yamagata,Japan,38.2554153,140.3396175
2009-0275-JPN,Yamaguti,Japan,34.1782945,131.4738432
2015-0611-JPN,Funabashi,Japan,35.6945485,139.9827277
2003-0388-JPN,Hokkaidoo,Japan,43.2203266,142.8634737
2011-0082-JPN,Hokkaidoo,Japan,43.2203266,142.8634737
2015-0418-JPN,Joso city,Japan,36.0235412,139.9936327
2021-0405-JPN,Kagoshima,Japan,31.5968539,130.5571392
2022-0604-JPN,Kagoshima,Japan,31.5968539,130.5571392
2016-0538-JPN,Yamanashi,Japan,35.6933453,138.6873168
2004-0352-JPN,Tokyo city,Japan,35.6803997,139.7690174
2011-0130-JPN,Ishinomakisi,Japan,38.434332,141.3028682
2014-0396-JPN,Makurazakisi,Japan,31.2728662,130.2966917
2016-0023-JPN,Okinawa city,Japan,26.3343533,127.8056058
2021-0194-JPN,Honshu Island,Japan,36.169999900000008,138.04
2018-0330-JPN,Atsuma village,Japan,42.7229102,141.8782468
2014-0465-JPN,Hakuba village,Japan,36.6981614,137.8619333
2013-0127-JPN,Hyogo province,Japan,34.8579518,134.5453787
2016-0492-JPN,Kurayoshi city,Japan,35.4304213,133.8260633
2002-0181-JPN,Matsumoto city,Japan,36.2380434,137.9719897
2023-0526-JPN,Hyogo and Osaka,Japan,34.6937249,135.5022535
2015-0575-JPN,Oosaka province,Japan,34.6413315,135.5629394
2005-0129-JPN,Hukuoka province,Japan,33.5901838,130.4016888
2009-0276-JPN,Hukuoka province,Japan,33.5901838,130.4016888
2005-0394-JPN,Niigata province,Japan,37.9161244,139.0363708
2012-0120-JPN,Niigata province,Japan,37.9161244,139.0363708
2002-0406-JPN,Okinawa province,Japan,26.3343533,127.8056058
2002-0570-JPN,Okinawa province,Japan,26.3343533,127.8056058
2003-0459-JPN,Okinawa province,Japan,26.3343533,127.8056058
2012-0588-JPN,Okinawa province,Japan,26.3343533,127.8056058
2013-0429-JPN,Okinawa province,Japan,26.3343533,127.8056058
2015-0244-JPN,Okinawa province,Japan,26.3343533,127.8056058
2015-0458-JPN,Okinawa province,Japan,26.3343533,127.8056058
2004-0563-JPN,Sizuoka province,Japan,34.9755668,138.3826773
2013-0413-JPN,Kagosima province,Japan,31.5968539,130.5571392
2015-0371-JPN,Kumamoto province,Japan,32.8032164,130.7079369
2016-0107-JPN,Kumamoto province,Japan,32.8032164,130.7079369
2016-0221-JPN,Kumamoto province,Japan,32.8032164,130.7079369
2003-0343-JPN,Minamata district,Japan,32.2118618,130.4087101
2014-0519-JPN,Tokusima province,Japan,33.9419655,134.3236557
2002-0431-JPN,Hokkaidoo province,Japan,43.2203266,142.8634737
2003-0476-JPN,Hokkaidoo province,Japan,43.2203266,142.8634737
2006-0616-JPN,Hokkaidoo province,Japan,43.2203266,142.8634737
2013-0080-JPN,Hokkaidoo province,Japan,43.2203266,142.8634737
2016-0361-JPN,Hokkaidoo province,Japan,43.2203266,142.8634737
2020-0403-JPN,Okinawa Prefecture,Japan,26.1201911,127.7025012
2020-0296-JPN,Kumamoto Prefecture,Japan,32.8594427,130.7969149
2020-0400-JPN,Miyazaki Prefecture,Japan,32.6036022,131.441251
2022-0153-JPN,Fukushima Prefecture,Japan,37.3834373,140.1832516
2023-0413-JPN,Yamaguchi Prefecture,Japan,34.2796769,131.5212742
2023-0609-JPN,Central Honshu Island,Japan,36.169999900000008,138.04
2014-0271-JPN,Hirosimasi_Asaminamiku,Japan,36.204824,138.252924
2017-0432-JPN,Honshu Island: Fukuoka,Japan,36.169999900000008,138.04
2019-0521-JPN,Chiba prefecture; Tokyo,Japan,35.6764225,139.650027
2014-0487-JPN,Nagoyasi_Atutaku district,Japan,36.204824,138.252924
2017-0327-JPN,Wakayama prefecture; Mie region,Japan,33.8143901,136.0487047
2019-0289-JPN,Kyushu and Amami Islands; Kagoshima,Japan,27.7005538,128.8205454
2011-0504-KEN,Busia,Kenya,0.4611106,34.1102266
2004-9288-KEN,Kitui,Kenya,-1.3750813,37.9952144
2008-9302-KEN,Sacho,Kenya,0.3696271,35.7657447
2011-9663-KEN,Wajir,Kenya,1.7488388,40.058633
2006-0178-KEN,Isiolo,Kenya,0.355636,37.5833061
2016-9452-KEN,Kilifi,Kenya,-3.5106508,39.9093269
2023-0259-KEN,Kisumu,Kenya,-0.0917016,34.7679568
2002-0265-KEN,Migori,Kenya,-1.0706976,34.4752715
2006-0587-KEN,Moyale,Kenya,3.5210916,39.0546262
2003-0204-KEN,Nyando,Kenya,-0.1995242,34.8844867
2006-0234-KEN,Nyanza,Kenya,-0.023559,37.906193
2019-0557-KEN,Tapach,Kenya,1.2627768,35.4453207
2006-0624-KEN,Garissa,Kenya,-0.4532293,39.6460988
2005-9719-KEN,Makueni,Kenya,-2.2558734,37.8936663
2014-9404-KEN,Mandera,Kenya,3.9356388999999989,41.8551162
2013-0281-KEN,Marigat,Kenya,0.46947210000000011,35.983274300000012
2007-0177-KEN,Mombasa,Kenya,-4.0434771,39.6682065
2019-0500-KEN,Mombasa,Kenya,-4.0434771,39.6682065
2023-0187-KEN,Mombasa,Kenya,-4.0434771,39.6682065
2018-0116-KEN,Nairobi,Kenya,-1.2920659,36.8219462
2024-0210-KEN,Nairobi,Kenya,-1.2920659,36.8219462
2024-0247-KEN,Nairobi,Kenya,-1.2920659,36.8219462
2010-9082-KEN,Marsabit,Kenya,2.3354966,37.9943453
2020-9609-KEN,Marsabit,Kenya,2.3354966,37.9943453
2024-0150-KEN,Marsabit,Kenya,2.3354966,37.9943453
2015-0564-KEN,Mt Elgon,Kenya,-0.023559,37.906193
2012-0166-KEN,Kitengela,Kenya,-1.5167072,36.849996
2021-0227-KEN,Tana River,Kenya,-1.275207712862398,39.0534260922608
2023-0721-KEN,Tana River,Kenya,-1.275207712862398,39.0534260922608
2018-0132-KEN,Tana river,Kenya,-1.275207712862398,39.0534260922608
2019-9145-KEN,West Pokot,Kenya,1.6210076,35.3905046
2020-0164-KEN,West Pokot,Kenya,1.6210076,35.3905046
2005-0260-KEN,Dadaab town,Kenya,0.0572539,40.307418
2008-0483-KEN,Katilu area,Kenya,2.2742689,35.4316201
2011-0423-KEN,Kisumu town,Kenya,-0.0917016,34.7679568
2016-0089-KEN,Lodwar city,Kenya,3.1155165,35.6040785
2002-0689-KEN,Madogo area,Kenya,-0.4725528,39.6027669
2018-0148-KEN,Near Nakuru,Kenya,-0.3030988,36.080026
2002-0800-KEN,Marigat area,Kenya,0.46947210000000011,35.983274300000012
2013-0123-KEN,Naivasha town,Kenya,-0.70571659999999992,36.4256134
2007-0408-KEN,Busia district,Kenya,0.4346506,34.2421597
2008-0518-KEN,Busia district,Kenya,0.4346506,34.2421597
2011-0476-KEN,Dadaab village,Kenya,0.0572539,40.307418
2015-0159-KEN,Narok district,Kenya,-1.0875428,35.877064200000007
2005-0215-KEN,Isiolo district,Kenya,0.35243520000000012,38.484992299999988
2002-0711-KEN,Kiambu district,Kenya,-1.0313701,36.8680791
2003-0729-KEN,Kisumu district,Kenya,-0.183983,34.9506625
2004-0152-KEN,Nyando district,Kenya,-0.1995242,34.8844867
2008-0482-KEN,Mandera district,Kenya,3.5737991,40.958688
2009-0494-KEN,Mandera district,Kenya,3.5737991,40.958688
2010-0094-KEN,Mandera district,Kenya,3.5737991,40.958688
2001-0032-KEN,Nairobi district,Kenya,-1.3106691,36.8250274
2004-0194-KEN,Nairobi district,Kenya,-1.3106691,36.8250274
2009-0597-KEN,Nairobi district,Kenya,-1.3106691,36.8250274
2013-0305-KEN,Nairobi district,Kenya,-1.3106691,36.8250274
2016-0161-KEN,Nairobi district,Kenya,-1.3106691,36.8250274
2010-0285-KEN,Salabani village,Kenya,0.556666,36.0400009
2015-0158-KEN,Homa Bay district,Kenya,-0.62206549999999994,34.3310364
2004-0659-KEN,Mombassa district,Kenya,-3.9768291,39.7137181
2002-0248-KEN,Meru Central district,Kenya,0.3557174,37.8087693
2007-0613-KEN,Taita Taveta district,Kenya,-3.3160687,38.484992299999988
2008-0127-KEN,Taita Taveta district,Kenya,-3.3160687,38.484992299999988
2013-0545-KEN,Taita Taveta district,Kenya,-3.3160687,38.484992299999988
2008-0260-KEN,Tana river delta area,Kenya,-2.5647546,40.3647506
2013-0546-LBY,Tripoli,Libya,32.8877109,13.187186
2023-0610-LBY,Benghazi,Libya,32.1194242,20.0867909
2019-0224-LBY,Ghat municipality,Libya,25.8532131,10.439656
2017-0321-NPL,Kaski,Nepal,28.2622146,84.01674229999999
2016-0275-NPL,Rapti,Nepal,28.274347,82.388578299999992
2023-0653-NPL,Achham,Nepal,29.0396219,81.2518833
2008-0271-NPL,Kusaha,Nepal,26.5564191,86.6391513
2004-0298-NPL,Morang,Nepal,26.6799002,87.460397
2017-0256-NPL,Parbat,Nepal,28.2246464,83.6986568
2020-0297-NPL,Parbat,Nepal,28.2246464,83.6986568
2024-0478-NPL,Baglung,Nepal,28.2774326,83.581615
2021-0605-NPL,Bagmati,Nepal,27.6624958,85.4375574
2003-0341-NPL,Baitadi,Nepal,29.5185787,80.4688061
2008-0431-NPL,Bardiya,Nepal,28.3102323,81.427898399999989
2000-0476-NPL,Dhading,Nepal,27.9711357,84.8984775
2011-0351-NPL,Lamjung,Nepal,28.2765491,84.3542049
2023-0326-NPL,Nuwakot,Nepal,27.9194201,85.1660825
2016-0267-NPL,Pyuthan,Nepal,28.1016595,82.853292799999991
2018-0049-NPL,SAptari,Nepal,26.619097,86.7818523
2009-0595-NPL,Saptari,Nepal,26.619097,86.7818523
2016-0187-NPL,Dhanusha,Nepal,26.8350474,86.0121573
2017-0342-NPL,Lalitpur,Nepal,27.6587525,85.3247183
2019-0332-NPL,Lalitpur,Nepal,27.6587525,85.3247183
2002-0428-NPL,Kathmandu,Nepal,27.7172453,85.3239605
2015-0175-NPL,Kathmandu,Nepal,27.7172453,85.3239605
2007-0307-NPL,Mahottari,Nepal,26.6943279,85.8230251
2011-0627-NPL,Taplejung,Nepal,27.3540207,87.6679765
2013-0576-NPL,Jhapa area,Nepal,26.5455087,87.894245099999992
2005-0556-NPL,Kanchanpur,Nepal,28.8372008,80.32131059999999
2009-0434-NPL,Kanchanpur,Nepal,28.8372008,80.32131059999999
2011-0641-NPL,Kapilvastu,Nepal,27.5517986,83.0468775
2021-0381-NPL,Province 1,Nepal,27.3372148,87.38107269999999
2011-0510-NPL,Rukum area,Nepal,28.6946543,82.4319405
2018-0219-NPL,Runtigadhi,Nepal,28.1829865,82.5058182
2015-0144-NPL,Gorkha area,Nepal,28.296354,84.8567932
2014-0416-NPL,Manang area,Nepal,28.6419484,84.1857115
2006-9723-NPL,Mid Western,Nepal,29.0164923,82.388578299999992
2011-0317-NPL,Mid Western,Nepal,29.0164923,82.388578299999992
2010-0333-NPL,Sunsari area,Nepal,26.6275522,87.1821709
2019-0135-NPL,Bara district,Nepal,27.1341114,85.0649071
2022-0731-NPL,Doti district,Nepal,29.200598,80.898650199999992
2010-0452-NPL,Sankhuwasabha,Nepal,27.617367,87.301613199999991
2014-0246-NPL,Sindhupalchok,Nepal,27.9512034,85.684578
2006-0409-NPL,Yarsa village,Nepal,28.0,85.316667
2013-0456-NPL,Kathmandu area,Nepal,27.6778608,85.340295799999993
2001-0298-NPL,Koshi district,Nepal,27.0536524,87.301613199999991
2015-0226-NPL,Taplejung area,Nepal,27.3540207,87.6679765
2005-0821-NPL,Gandaki district,Nepal,28.3590669,84.1012861
2012-0589-NPL,Gandaki district,Nepal,28.3590669,84.1012861
2022-0590-NPL,Darchula District,Nepal,29.9363466,80.898650199999992
2009-0305-NPL,Sankhuwasabha area,Nepal,27.617367,87.301613199999991
2021-0681-NPL,Kanchanpur District,Nepal,28.8372008,80.32131059999999
2011-0543-NPL,Narjamandap village,Nepal,27.9323907,85.2877663
2014-0124-NPL,Sagarmatha district,Nepal,27.3238263,86.7416374
2014-0268-NPL,Far Western province,Nepal,29.2987871,80.9871074
2021-0308-NPL,Helambu and Melamchi,Nepal,27.8297283,85.5762108
2022-0488-NPL,Myagdi and Kaski districts,Nepal,28.2622146,84.01674229999999
2023-0722-NPL,Jajarkot and Rukum Districts of Karnali Province,Nepal,28.7396466,82.2039882
2022-0493-NPL,Belaka municipality of Udayapur district; Saptakoshi,Nepal,26.8131077,87.0688871
2017-9208-NER,Bosso,Niger,13.69661,13.31583
2011-9529-NER,Diffa,Niger,13.3132472,12.6158803
2013-0534-NER,Diffa,Niger,13.3132472,12.6158803
2020-9570-NER,Diffa,Niger,13.3132472,12.6158803
2006-0445-NER,Agadez,Niger,16.9741689,7.986535
2009-0386-NER,Agadez,Niger,16.9741689,7.986535
2009-9651-NER,Agadez,Niger,16.9741689,7.986535
2012-0302-NER,Agadez,Niger,16.9741689,7.986535
2015-0368-NER,Agadez,Niger,16.9741689,7.986535
2017-0370-NER,Agadez,Niger,16.9741689,7.986535
2022-9254-NER,Agadez,Niger,16.9741689,7.986535
2013-0336-NER,Maradi,Niger,13.5009779,7.1036395999999993
2018-0232-NER,Maradi,Niger,13.5009779,7.1036395999999993
2020-0336-NER,Maradi,Niger,13.5009779,7.1036395999999993
2021-0461-NER,Maradi,Niger,13.5009779,7.1036395999999993
2023-0457-NER,Maradi,Niger,13.5009779,7.1036395999999993
2024-0390-NER,Maradi,Niger,13.5009779,7.1036395999999993
2014-0289-NER,Niamey,Niger,13.5115963,2.1253854
2020-0387-NER,Niamey,Niger,13.5115963,2.1253854
2016-0269-NER,Tahoua,Niger,14.8904575,5.2579968
2007-0389-NER,Zinder,Niger,13.8018124,8.98527
2008-0296-NER,Zinder,Niger,13.8018124,8.98527
2010-0295-NER,Zinder,Niger,13.8018124,8.98527
2019-0415-NER,Zinder,Niger,13.8018124,8.98527
2022-0446-NER,Zinder,Niger,13.8018124,8.98527
2011-0598-NER,Ouallam,Niger,14.3147935,2.0885853
2005-9362-NER,Tillaberi,Niger,14.2061141,1.4579696
2017-0186-NER,Tillabéri,Niger,14.2061141,1.4579696
2019-0504-NER,Diffa Region,Niger,13.6768647,12.7135121
2011-0419-NER,Zarmagandaye,Niger,14.6489525,2.1450245
2001-0644-NER,Diffa province,Niger,13.3132472,12.6158803
2002-0497-NER,Agadez province,Niger,16.9741689,7.986535
2015-9166-NER,NO DATA: all provinces have been selected: Maradi,Niger,13.5009779,7.1036395999999993
2012-0500-PLW,Angaur,Palau,6.909223,134.1387934
2021-0236-PLW,Anguar,Palau,6.909223,134.1387934
2018-0390-QAT,Doha,Qatar,25.2854473,51.531039799999988
2001-0274-WSM,Lepea,Samoa,-13.8368648,-171.7889546
2015-9483-WSM,Upolu Isl.,Samoa,-13.9134084,-171.734942
2005-0151-WSM,Samoa province,Samoa,-13.759029,-172.104629
2012-0498-WSM,Samoa province,Samoa,-13.759029,-172.104629
2020-0020-ESP,Gandia,Spain,38.968032,-0.1844671
2021-0016-ESP,Madrid,Spain,40.416727900000012,-3.7032905
2000-0359-ESP,Aragón,Spain,41.5976275,-0.9056623
2005-0713-ESP,Aragón,Spain,41.5976275,-0.9056623
2007-0037-ESP,Aragón,Spain,41.5976275,-0.9056623
2019-0296-ESP,Cordoba,Spain,37.8893025,-4.779275300000001
2000-0580-ESP,Galicia,Spain,42.5750554,-8.1338558
2009-0014-ESP,Galicia,Spain,42.5750554,-8.1338558
2010-0088-ESP,Galicia,Spain,42.5750554,-8.1338558
2017-0417-ESP,Galicia,Spain,42.5750554,-8.1338558
2019-0301-ESP,Tafalla,Spain,42.5267993,-1.6776784
2021-0766-ESP,Asturias,Spain,43.2504393,-5.9832576999999993
2019-0015-ESP,Asturies,Spain,43.2504393,-5.9832576999999993
2023-0438-ESP,Figueres,Spain,42.2654818,2.9579232
2018-0259-ESP,Llutxent,Spain,38.9421315,-0.3554194
2018-0361-ESP,Majorque,Spain,39.6952629,3.0175712
2001-0621-ESP,Mallorca,Spain,39.6952629,3.0175712
2019-0533-ESP,Mallorca,Spain,39.6952629,3.0175712
2019-0413-ESP,Valencia,Spain,39.4738338,-0.3756348
2004-0373-ESP,Andalucia,Spain,37.5442706,-4.7277528
2019-0497-ESP,Barcelona,Spain,41.3873974,2.168568
2024-0129-ESP,Barcelona,Spain,41.3873974,2.168568
2000-0814-ESP,Cantabria,Spain,43.1828396,-3.9878427
2019-0626-ESP,Catalogne,Spain,41.5911589,1.5208624
2023-0581-ESP,Catalonia,Spain,41.5911589,1.5208624
2004-0361-ESP,Andalucía,Spain,37.5442706,-4.7277528
2012-0449-ESP,Andalucía,Spain,37.5442706,-4.7277528
2023-9234-ESP,Catalognia,Spain,41.5911589,1.5208624
2010-0647-ESP,Ecija city,Spain,37.543767300000013,-5.0837996
2013-0530-ESP,Bilbao city,Spain,43.2633799,-2.9348121
2018-0002-ESP,Pays Basque,Spain,42.9896248,-2.6189273
2023-0725-ESP,Valdezcaray,Spain,42.2571908,-2.9709205
2000-0699-ESP,Amposta city,Spain,40.7067997,0.5801695
2016-0496-ESP,Los Alcázare,Spain,37.7481843,-0.84806549999999992
2003-0372-ESP,Cuenca district,Spain,40.0703925,-2.1374162
2012-0279-ESP,Girona district,Spain,41.9794005,2.8214264
2013-0215-ESP,Huesca district,Spain,42.131845,-0.4078058
2009-0271-ESP,Teruel district,Spain,40.3456879,-1.1064345
2019-0186-ESP,Valencia; Xabia,Spain,38.7889132,0.1660573
2022-0355-ESP,Zamora Province,Spain,41.6095744,-5.8987139000000006
2007-0551-ESP,Alicante/Alacant,Spain,38.3457685,-0.4909444
2006-0444-ESP,Galicia province,Spain,43.0810023,-7.6715975999999992
2014-0008-ESP,Galicia province,Spain,43.0810023,-7.6715975999999992
2007-0132-ESP,Zaragoza district,Spain,41.6474339,-0.8861451
2011-0159-ESP,Lorca municipality,Spain,37.6735925,-1.6968357
2000-0837-ESP,Port Ainé village,Spain,42.428405,1.212048
2011-0475-ESP,San Sebastian city,Spain,43.318237,-1.9817051
2015-0447-ESP,Valencia/València,Spain,39.4840108,-0.75328089999999992
2003-0391-ESP,Andaloucia province,Spain,37.5442706,-4.7277528
2006-0383-ESP,Cataluña/Catalunya,Spain,41.5911589,1.5208624
2007-0174-ESP,Comunidad de Madrid,Spain,40.4167088,-3.5812692
2005-0380-ESP,Guadalajara district,Spain,40.632489,-3.16017
2015-0532-ESP,Agramunt municipality,Spain,41.787186899999988,1.0979794
2006-0617-ESP,Marbella municipality,Spain,36.5102831,-4.8852579
2017-0228-ESP,Near Moguer and Mazagon,Spain,37.1369251,-6.828392
2023-0727-ESP,Montitxelvo municipality,Spain,38.8909841,-0.3391465
2002-0879-ESP,Santa Cruz de Tenerife district,Spain,28.4636296,-16.2518467
2021-0561-ESP,Castellón and Valencia Provinces,Spain,39.4840108,-0.75328089999999992
